"id","name","district_id","sub_name","postal_code","longitude","latitude","created_at","updated_at","deleted_at"
"3","Ampara","1",,"32000","81.67834","7.29173","2025-09-04 21:57:32","2025-09-04 21:57:32",NULL
"11","Attidiya ","5",,"10290","79.88654","6.83004","2025-09-04 21:57:32","2025-09-04 21:57:32",NULL
"12","Battaramulla","5",,"10120","79.922136","6.900299","2025-09-04 21:57:32","2025-09-04 21:57:32",NULL
"13","Boralesgamuwa","5",,"290","79.9006","6.8425","2025-09-04 21:57:32","2025-09-04 21:57:32",NULL
"15","Colombo 01","5","(Fort)","100","79.841667","6.925833","2025-09-04 21:57:32","2025-09-04 21:57:32",NULL
"16","Colombo 02","5","(Union Place, Slave Island)","200","79.848611","6.926944","2025-09-04 21:57:32","2025-09-04 21:57:32",NULL
"17","Colombo 03","5","(Colpetty, Kolpity)","300","79.853333","6.900556","2025-09-04 21:57:32","2025-09-04 21:57:32",NULL
"18","Colombo 04","5","(Bambalapitiya)","400","79.856667","6.888889","2025-09-04 21:57:32","2025-09-04 21:57:32",NULL
"19","Colombo 05","5","(Thimbirigashaya, Narahenpita, Havelock road, Kirulapana)","500","79.865278","6.879444","2025-09-04 21:57:32","2025-09-04 21:57:32",NULL
"20","Colombo 06","5","(Wellawatte, Pamankada)","600","79.860483","6.874657","2025-09-04 21:57:32","2025-09-04 21:57:32",NULL
"21","Colombo 07","5","(Cinnamon Gardens)","700","79.863333","6.906667","2025-09-04 21:57:32","2025-09-04 21:57:32",NULL
"22","Colombo 08","5","(Borella)","800","79.877778","6.914722","2025-09-04 21:57:32","2025-09-04 21:57:32",NULL
"23","Colombo 09","5","(Dematagoda, Punchi Borella)","900","79.87472","6.93165","2025-09-04 21:57:32","2025-09-04 21:57:32",NULL
"24","Colombo 10","5","(Maradana, Panchikawatte, Maligawatte)","1000","79.864167","6.928333","2025-09-04 21:57:32","2025-09-04 21:57:32",NULL
"25","Colombo 11","5","(Pettah)","1100","79.849722","6.936667","2025-09-04 21:57:32","2025-09-04 21:57:32",NULL
"26","Colombo 12","5","(Hulftsdorp)","1200","79.858333","6.9425","2025-09-04 21:57:32","2025-09-04 21:57:32",NULL
"27","Colombo 13","5","(Kotahena, Kochchikade, Bloemendhal)","1300","79.858611","6.942778","2025-09-04 21:57:32","2025-09-04 21:57:32",NULL
"28","Colombo 14","5","(Grandpass)","1400","79.874722","6.9475","2025-09-04 21:57:32","2025-09-04 21:57:32",NULL
"29","Colombo 15","5","(Modara, Matakkuliya, Madampitiya)","1500","79.875278","6.959444","2025-09-04 21:57:32","2025-09-04 21:57:32",NULL
"30","Dehiwala-Mount Lavinia","5",,,"0","0","2025-09-04 21:57:32","2025-09-04 21:57:32",NULL
"31","Galle","6",,"80000","80.2117","6.0536","2025-09-04 21:57:32","2025-09-04 21:57:32",NULL
"32","Kohuwala","5",,"20200","79.8877","6.87019","2025-09-04 21:57:32","2025-09-04 21:57:32",NULL
"33","Mount Lavinia","5",,"10370","79.863141","6.838864","2025-09-04 21:57:32","2025-09-04 21:57:32",NULL
"34","Nugegoda","5",,"10250","79.8881501","6.8656191","2025-09-04 21:57:32","2025-09-04 21:57:32",NULL
"35","Pepiliyana","5",,"10290","79.88893","6.85232","2025-09-04 21:57:32","2025-09-04 21:57:32",NULL
"37","Rajagiriya","5",,"10107","79.9078595","6.9187787","2025-09-04 21:57:32","2025-09-04 21:57:32",NULL
"38","Nawala","5",,"11222","79.8914138999246","6.896577071612294","2025-09-04 21:57:32","2025-09-04 21:57:32",NULL
"39","Kandy","11",,"20000","80.635","7.2964","2025-09-04 21:57:32","2025-09-04 21:57:32",NULL
"40","Kotte","5",,"10120","79.9008","6.88398","2025-09-04 21:57:32","2025-09-04 21:57:32",NULL
"41","Hambantota","8",,"82000","81.111287","6.127563","2025-09-04 21:57:32","2025-09-04 21:57:32",NULL
"42","Pannipitiya","5",,"10230","79.944518","6.843999","2025-09-04 21:57:32","2025-09-04 21:57:32",NULL
"43","Maharagama","5",,"10280","79.932766","6.843401","2025-09-04 21:57:32","2025-09-04 21:57:32",NULL
"44","Pasikuda","4",,"30410","81.55893","7.93029","2025-09-04 21:57:32","2025-09-04 21:57:32",NULL
"45","Hikkaduwa","6",,"80240","80.113201","6.139535","2025-09-04 21:57:32","2025-09-04 21:57:32",NULL
"47","Wilaththawa","14",,,"79.9173403","7.5948976","2025-09-04 21:57:32","2025-09-04 21:57:32",NULL
"48","Ratmalana","5",,"10370","79.8807","6.81871","2025-09-04 21:57:32","2025-09-04 21:57:32",NULL
"49","Moratuwa","5",,"10400","79.8825","6.7733","2025-09-04 21:57:32","2025-09-04 21:57:32",NULL
"51","Hatton","20",,"22000","80.599855","6.899356","2025-09-04 21:57:32","2025-09-04 21:57:32",NULL
"53","Dehiwala","5",,"10350","79.865156","6.856387","2025-09-04 21:57:32","2025-09-04 21:57:32",NULL
"56","Pita Kotte","5",,"10250","79.90422","6.89017","2025-09-04 21:57:32","2025-09-04 21:57:32",NULL
"58","Wijerama","5",,"10250","79.90771","6.85556","2025-09-04 21:57:32","2025-09-04 21:57:32",NULL
"59","Thalawathugoda","5",,"10116","79.94379","6.87382","2025-09-04 21:57:32","2025-09-04 21:57:32",NULL
"62","Piliyandala","5",,"10300","79.9264","6.7981","2025-09-04 21:57:32","2025-09-04 21:57:32",NULL
"66","Bolgoda","10",,"12524","79.9753","6.7071","2025-09-04 21:57:32","2025-09-04 21:57:32",NULL
"68","Kalubowila","5",,"20200","79.87652","6.86654","2025-09-04 21:57:32","2025-09-04 21:57:32",NULL
"71","Bokundara","5",,"10300","79.92313","6.81761","2025-09-04 21:57:32","2025-09-04 21:57:32",NULL
"73","Ethul Kotte","5",,"10100","79.90242","6.89986","2025-09-04 21:57:32","2025-09-04 21:57:32",NULL
"74","Pelawatta","10",,"12138","80.207989","6.385227","2025-09-04 21:57:32","2025-09-04 21:57:32",NULL
"75","Mirihana","14",,"60408","80.2583","7.6542","2025-09-04 21:57:32","2025-09-04 21:57:32",NULL
"76","Udahamulla","5",,"100115","79.91565","6.72447","2025-09-04 21:57:32","2025-09-04 21:57:32",NULL
"78","Jaffna","9",,"40000","80.022706","9.660668","2025-09-04 21:57:32","2025-09-04 21:57:32",NULL
"79","Negombo","7",,"11500","79.8358","7.2086","2025-09-04 21:57:32","2025-09-04 21:57:32",NULL
"81","Sri Jayewardenepura Kotte","5",,"10100","79.9359","6.8897","2025-09-04 21:57:32","2025-09-04 21:57:32",NULL
"82","Trincomalee","24",,"31000","81.2333","8.5667","2025-09-04 21:57:32","2025-09-04 21:57:32",NULL
"83","Kalmunai","1",,"32300","81.826718","7.413897","2025-09-04 21:57:32","2025-09-04 21:57:32",NULL
"84","Point Pedro","9",,"40000","80.24238","9.82805","2025-09-04 21:57:32","2025-09-04 21:57:32",NULL
"85","Batticaloa","4",,"30000","81.69549","7.72064","2025-09-04 21:57:32","2025-09-04 21:57:32",NULL
"86","Katunayake","7",,"11450","79.8731","7.1647","2025-09-04 21:57:32","2025-09-04 21:57:32",NULL
"87","Valvettithurai","9",,"40540","80.1618","9.82429","2025-09-04 21:57:32","2025-09-04 21:57:32",NULL
"88","Matara","17",,"81000","80.5428","5.9486","2025-09-04 21:57:32","2025-09-04 21:57:32",NULL
"90","Dambulla","16",,"21100","80.646464","7.868039","2025-09-04 21:57:32","2025-09-04 21:57:32",NULL
"91","Kotikawatta","5",,"10600","79.91618","6.93138","2025-09-04 21:57:32","2025-09-04 21:57:32",NULL
"92","Anuradhapura","2",,"50000","80.40849","8.33021","2025-09-04 21:57:32","2025-09-04 21:57:32",NULL
"93","Vavuniya","25",,"43000","80.493461","8.758818","2025-09-04 21:57:32","2025-09-04 21:57:32",NULL
"94","Kolonnawa","5",,"10600","79.888095","6.933035","2025-09-04 21:57:32","2025-09-04 21:57:32",NULL
"95","Hendala","7",,"11300","79.87455","6.98737","2025-09-04 21:57:32","2025-09-04 21:57:32",NULL
"96","Ratnapura","23",,"70000","80.405592","6.677603","2025-09-04 21:57:32","2025-09-04 21:57:32",NULL
"97","Badulla","6",,"9000","81.05319","6.99091","2025-09-04 21:57:32","2025-09-04 21:57:32",NULL
"98","Puttalam","22",,"61300","79.841209","8.043613","2025-09-04 21:57:32","2025-09-04 21:57:32",NULL
"99","Devinuwara","17","(Dondra)","81160","80.6069","5.9319","2025-09-04 21:57:32","2025-09-04 21:57:32",NULL
"100","Welisara","7",,"80110","79.89351","7.03115","2025-09-04 21:57:32","2025-09-04 21:57:32",NULL
"101","Kalutara","10",,"12000","79.958546","6.581333","2025-09-04 21:57:32","2025-09-04 21:57:32",NULL
"102","Bentota","6",,"80500","80.00305","6.41846","2025-09-04 21:57:32","2025-09-04 21:57:32",NULL
"103","Matale","16",,"21000","80.6244","7.4717","2025-09-04 21:57:32","2025-09-04 21:57:32",NULL
"104","Homagama","5",,"10200","80.005384","6.85685","2025-09-04 21:57:32","2025-09-04 21:57:32",NULL
"105","Beruwala","10",,"12070","79.98609","6.46892","2025-09-04 21:57:32","2025-09-04 21:57:32",NULL
"106","Panadura","10",,"12500","79.9042","6.7133","2025-09-04 21:57:32","2025-09-04 21:57:32",NULL
"107","Mulleriyawa","5",,"100115","79.93127","6.93227","2025-09-04 21:57:32","2025-09-04 21:57:32",NULL
"108","Kandana","7",,"11320","79.895123","7.05056","2025-09-04 21:57:32","2025-09-04 21:57:32",NULL
"109","Ja-Ela","7",,"11350","79.894932","7.076147","2025-09-04 21:57:32","2025-09-04 21:57:32",NULL
"110","Wattala","7",,"11104","79.892207","6.990037","2025-09-04 21:57:32","2025-09-04 21:57:32",NULL
"111","Peliyagoda","7",,"11830","79.878852","6.960977","2025-09-04 21:57:32","2025-09-04 21:57:32",NULL
"112","Kelaniya","7",,"11600","79.921431","6.956357","2025-09-04 21:57:32","2025-09-04 21:57:32",NULL
"113","Kurunegala","14",,"60000","80.3647","7.4867","2025-09-04 21:57:32","2025-09-04 21:57:32",NULL
"114","Nuwara Eliya","20",,"22200","80.77","6.9697","2025-09-04 21:57:32","2025-09-04 21:57:32",NULL
"115","Gampola","11",,"20500","80.5767","7.1647","2025-09-04 21:57:32","2025-09-04 21:57:32",NULL
"116","Chilaw","22",,"61000","79.7953","7.5758","2025-09-04 21:57:32","2025-09-04 21:57:32",NULL
"117","Eravur","4","(Town)","30300","81.619817","7.768518","2025-09-04 21:57:32","2025-09-04 21:57:32",NULL
"118","Hanwella","5",,"10650","80.083333","6.905988","2025-09-04 21:57:32","2025-09-04 21:57:32",NULL
"119","Weligama","17",,"81700","80.4167","5.9667","2025-09-04 21:57:32","2025-09-04 21:57:32",NULL
"120","Vakarai","4",,"30450","81.415623","8.165968","2025-09-04 21:57:32","2025-09-04 21:57:32",NULL
"121","Kataragama","18",,"91400","81.3333","6.4167","2025-09-04 21:57:32","2025-09-04 21:57:32",NULL
"122","Ambalangoda","6",,"80300","79.96361","6.77649","2025-09-04 21:57:32","2025-09-04 21:57:32",NULL
"123","Kegalle","12",,"71000","80.351662","7.249349","2025-09-04 21:57:32","2025-09-04 21:57:32",NULL
"126","Polonnaruwa","21",,"51000","81.007138","7.940295","2025-09-04 21:57:32","2025-09-04 21:57:32",NULL
"127","Kilinochchi","13",,"44000","80.416667","9.416667","2025-09-04 21:57:32","2025-09-04 21:57:32",NULL
"128","Tangalla","8",,"82200","80.7889","6.0231","2025-09-04 21:57:32","2025-09-04 21:57:32",NULL
"129","Monaragala","18",,"91000","81.35","6.8667","2025-09-04 21:57:32","2025-09-04 21:57:32",NULL
"130","Wellawaya","18",,"91200","81.106295","6.719458","2025-09-04 21:57:32","2025-09-04 21:57:32",NULL
"131","Horana","10",,"12400","80.061557","6.719389","2025-09-04 21:57:32","2025-09-04 21:57:32",NULL
"132","Wattegama","14",,"20810","79.9333","7.5833","2025-09-04 21:57:32","2025-09-04 21:57:32",NULL
"133","Minuwangoda","7",,"11550","79.954904","7.176455","2025-09-04 21:57:32","2025-09-04 21:57:32",NULL
"134","Horawala Junction","10",,,"80.1359","6.47708","2025-09-04 21:57:32","2025-09-04 21:57:32",NULL
"135","Kuliyapitiya","14",,"60200","80.04873","7.469551","2025-09-04 21:57:32","2025-09-04 21:57:32",NULL
"136","Mihintale","2",,"50300","80.5","8.35","2025-09-04 21:57:32","2025-09-04 21:57:32",NULL
"137","Ella","3","(Town)","90090","81.050937","6.874485","2025-09-04 21:57:32","2025-09-04 21:57:32",NULL
"138","Haputale","3",,"90160","80.9667","6.7667","2025-09-04 21:57:32","2025-09-04 21:57:32",NULL
"139","Mirissa","17",,"81740","80.452288","5.94679","2025-09-04 21:57:32","2025-09-04 21:57:32",NULL
"140","Talawakele","20",,"22100","80.6611","6.9367","2025-09-04 21:57:32","2025-09-04 21:57:32",NULL
"141","Talpe","6",,"80615","80.2961","6.0061","2025-09-04 21:57:32","2025-09-04 21:57:32",NULL
"142","Koggala","6",,"80630","80.33271","5.98798","2025-09-04 21:57:32","2025-09-04 21:57:32",NULL
"143","Unawatuna","6",,"80600","80.249901","6.0169","2025-09-04 21:57:32","2025-09-04 21:57:32",NULL
"145","Kadugannawa","11",,"20300","80.5275","7.2536","2025-09-04 21:57:32","2025-09-04 21:57:32",NULL
"146","Sigiriya","16",,"21120","80.755205","7.954968","2025-09-04 21:57:32","2025-09-04 21:57:32",NULL
"147","Athurugiriya","5",,"10150","80.000389","6.872319","2025-09-04 21:57:32","2025-09-04 21:57:32",NULL
"148","Malabe","5",,"10115","79.969627","6.906079","2025-09-04 21:57:32","2025-09-04 21:57:32",NULL
"149","Hokandara","5",,"10118","79.969894","6.890237","2025-09-04 21:57:32","2025-09-04 21:57:32",NULL
"150","Thalahena","7",,"11504","79.8167","7.1667","2025-09-04 21:57:32","2025-09-04 21:57:32",NULL
"151","Kiribathgoda","7",,"11600","79.92755","6.98237","2025-09-04 21:57:32","2025-09-04 21:57:32",NULL
"152","Kadawatha","7",,"11850","79.9882","7.0258","2025-09-04 21:57:32","2025-09-04 21:57:32",NULL
"153","Thalangama","5",,"10120","80.70235","6.63483","2025-09-04 21:57:32","2025-09-04 21:57:32",NULL
"154","Ragama","7",,"11010","79.917386","7.025281","2025-09-04 21:57:32","2025-09-04 21:57:32",NULL
"155","Akkaraipattu","1",,"32400","81.85","7.2167","2025-09-04 21:57:32","2025-09-04 21:57:32",NULL
"156","Ambagahawatta","1",,"90326","81.3","7.4","2025-09-04 21:57:32","2025-09-04 21:57:32",NULL
"158","Bakmitiyawa","1",,"32024","81.633832","7.026268","2025-09-04 21:57:32","2025-09-04 21:57:32",NULL
"159","Deegawapiya","1",,"32006","81.6667","7.2833","2025-09-04 21:57:32","2025-09-04 21:57:32",NULL
"160","Devalahinda","1",,"32038","81.5778","7.1889","2025-09-04 21:57:32","2025-09-04 21:57:32",NULL
"161","Digamadulla Weeragoda","1",,"32008","81.6667","7.2833","2025-09-04 21:57:32","2025-09-04 21:57:32",NULL
"162","Dorakumbura","1",,"32104","81.280133","7.358849","2025-09-04 21:57:32","2025-09-04 21:57:32",NULL
"163","Gonagolla","1",,"32064","81.618014","7.449853","2025-09-04 21:57:32","2025-09-04 21:57:32",NULL
"164","Hulannuge","1",,"32514","81.3","7.4","2025-09-04 21:57:32","2025-09-04 21:57:32",NULL
"166","Kannakipuram","1",,"32405","81.85","7.2167","2025-09-04 21:57:32","2025-09-04 21:57:32",NULL
"167","Karativu","1",,"32250","81.8333","7.3833","2025-09-04 21:57:32","2025-09-04 21:57:32",NULL
"168","Kekirihena","1",,"32074","81.310836","7.490724","2025-09-04 21:57:32","2025-09-04 21:57:32",NULL
"169","Koknahara","1",,"32035","81.555806","7.184832","2025-09-04 21:57:32","2025-09-04 21:57:32",NULL
"170","Kolamanthalawa","1",,"32102","81.249913","7.351733","2025-09-04 21:57:32","2025-09-04 21:57:32",NULL
"171","Komari","1",,"32418","81.78883","6.976958","2025-09-04 21:57:32","2025-09-04 21:57:32",NULL
"172","Lahugala","1",,"32512","81.33954","7.415566","2025-09-04 21:57:32","2025-09-04 21:57:32",NULL
"173","lmkkamam","1",,"32450","81.8542","7.1125","2025-09-04 21:57:32","2025-09-04 21:57:32",NULL
"174","Mahaoya","1",,"32070","81.351145","7.535248","2025-09-04 21:57:32","2025-09-04 21:57:32",NULL
"175","Marathamune","1",,"32314","81.8167","7.45","2025-09-04 21:57:32","2025-09-04 21:57:32",NULL
"176","Namaloya","1",,"32037","81.5778","7.1889","2025-09-04 21:57:32","2025-09-04 21:57:32",NULL
"177","Navithanveli","1",,"32308","81.7833","7.4333","2025-09-04 21:57:32","2025-09-04 21:57:32",NULL
"178","Nintavur","1",,"32340","81.85","7.35","2025-09-04 21:57:32","2025-09-04 21:57:32",NULL
"179","Oluvil","1",,"32360","81.85","7.2833","2025-09-04 21:57:32","2025-09-04 21:57:32",NULL
"180","Padiyatalawa","1",,"32100","81.2333","7.4","2025-09-04 21:57:32","2025-09-04 21:57:32",NULL
"181","Pahalalanda","1",,"32034","81.578714","7.21752","2025-09-04 21:57:32","2025-09-04 21:57:32",NULL
"182","Panama","1",,"32508","81.712237","6.812201","2025-09-04 21:57:32","2025-09-04 21:57:32",NULL
"183","Pannalagama","1",,"32022","81.6167","7.0667","2025-09-04 21:57:32","2025-09-04 21:57:32",NULL
"184","Paragahakele","1",,"32031","81.609526","7.25669","2025-09-04 21:57:32","2025-09-04 21:57:32",NULL
"185","Periyaneelavanai","1",,"32316","81.814169","7.434002","2025-09-04 21:57:32","2025-09-04 21:57:32",NULL
"186","Polwaga Janapadaya","1",,"32032","81.5778","7.1889","2025-09-04 21:57:32","2025-09-04 21:57:32",NULL
"187","Pottuvil","1",,"32500","81.8333","6.8667","2025-09-04 21:57:32","2025-09-04 21:57:32",NULL
"188","Sainthamaruthu","1",,"32280","81.8333","7.3833","2025-09-04 21:57:32","2025-09-04 21:57:32",NULL
"189","Samanthurai","1",,"32200","81.8333","7.3833","2025-09-04 21:57:32","2025-09-04 21:57:32",NULL
"190","Serankada","1",,"32101","81.263599","7.464517","2025-09-04 21:57:32","2025-09-04 21:57:32",NULL
"191","Tempitiya","1",,"32072","81.429907","7.610374","2025-09-04 21:57:32","2025-09-04 21:57:32",NULL
"192","Thambiluvil","1",,"32415","81.819074","7.132227","2025-09-04 21:57:32","2025-09-04 21:57:32",NULL
"193","Tirukovil","1",,"32420","81.85","7.1167","2025-09-04 21:57:32","2025-09-04 21:57:32",NULL
"194","Uhana","1",,"32060","81.637746","7.363281","2025-09-04 21:57:32","2025-09-04 21:57:32",NULL
"195","Wadinagala","1",,"32039","81.56922","7.127849","2025-09-04 21:57:32","2025-09-04 21:57:32",NULL
"196","Wanagamuwa","1",,"32454","81.8542","7.1125","2025-09-04 21:57:32","2025-09-04 21:57:32",NULL
"197","Angamuwa","2",,"50248","80.205048","8.177645","2025-09-04 21:57:32","2025-09-04 21:57:32",NULL
"199","Awukana","2",,"50169","80.5266","7.9753","2025-09-04 21:57:32","2025-09-04 21:57:32",NULL
"200","Bogahawewa","2",,"50566","80.251702","8.328993","2025-09-04 21:57:32","2025-09-04 21:57:32",NULL
"201","Dematawewa","2",,"50356","80.870087","8.357373","2025-09-04 21:57:32","2025-09-04 21:57:32",NULL
"202","Dimbulagala","2",,"51031","80.55","7.9167","2025-09-04 21:57:32","2025-09-04 21:57:32",NULL
"203","Dutuwewa","2",,"50393","80.5167","8.65","2025-09-04 21:57:32","2025-09-04 21:57:32",NULL
"204","Elayapattuwa","2",,"50014","80.318148","8.413522","2025-09-04 21:57:32","2025-09-04 21:57:32",NULL
"205","Ellewewa","2",,"51034","80.55","7.9167","2025-09-04 21:57:32","2025-09-04 21:57:32",NULL
"206","Eppawala","2",,"50260","80.7333","8.1167","2025-09-04 21:57:32","2025-09-04 21:57:32",NULL
"207","Etawatunuwewa","2",,"50584","80.5476","8.5595","2025-09-04 21:57:32","2025-09-04 21:57:32",NULL
"208","Etaweeragollewa","2",,"50518","80.539713","8.613962","2025-09-04 21:57:32","2025-09-04 21:57:32",NULL
"209","Galapitagala","2",,"32066","80.685528","8.089843","2025-09-04 21:57:32","2025-09-04 21:57:32",NULL
"210","Galenbindunuwewa","2",,"50390","80.55","8.5833","2025-09-04 21:57:32","2025-09-04 21:57:32",NULL
"211","Galkadawala","2",,"50006","80.378175","8.412861","2025-09-04 21:57:32","2025-09-04 21:57:32",NULL
"212","Galkiriyagama","2",,"50120","80.565","7.9414","2025-09-04 21:57:32","2025-09-04 21:57:32",NULL
"213","Galkulama","2",,"50064","80.506526","8.270414","2025-09-04 21:57:32","2025-09-04 21:57:32",NULL
"214","Galnewa","2",,"50170","80.3667","8.2","2025-09-04 21:57:32","2025-09-04 21:57:32",NULL
"215","Gambirigaswewa","2",,"50057","80.3667","8.4667","2025-09-04 21:57:32","2025-09-04 21:57:32",NULL
"216","Ganewalpola","2",,"50142","80.628195","8.090528","2025-09-04 21:57:32","2025-09-04 21:57:32",NULL
"217","Gemunupura","2",,"50224","80.6833","8.0667","2025-09-04 21:57:32","2025-09-04 21:57:32",NULL
"218","Getalawa","2",,"50392","80.5333","8.6167","2025-09-04 21:57:32","2025-09-04 21:57:32",NULL
"219","Gnanikulama","2",,"50036","80.431753","8.297336","2025-09-04 21:57:32","2025-09-04 21:57:32",NULL
"220","Gonahaddenawa","2",,"50554","80.5083","8.5333","2025-09-04 21:57:32","2025-09-04 21:57:32",NULL
"221","Habarana","2",,"50150","80.748664","8.047531","2025-09-04 21:57:32","2025-09-04 21:57:32",NULL
"222","Halmillawa Dambulla","2",,"50124","80.594","7.9474","2025-09-04 21:57:32","2025-09-04 21:57:32",NULL
"223","Halmillawetiya","2",,"50552","80.2667","8.35","2025-09-04 21:57:32","2025-09-04 21:57:32",NULL
"224","Hidogama","2",,"50044","80.418663","8.250421","2025-09-04 21:57:32","2025-09-04 21:57:32",NULL
"225","Horawpatana","2",,"50350","80.8667","8.4333","2025-09-04 21:57:32","2025-09-04 21:57:32",NULL
"226","Horiwila","2",,"50222","80.6833","8.0667","2025-09-04 21:57:32","2025-09-04 21:57:32",NULL
"227","Hurigaswewa","2",,"50176","80.3667","8.1333","2025-09-04 21:57:32","2025-09-04 21:57:32",NULL
"228","Hurulunikawewa","2",,"50394","80.5333","8.6167","2025-09-04 21:57:32","2025-09-04 21:57:32",NULL
"229","Ihala Puliyankulama","2",,"61316","80.559989","8.153213","2025-09-04 21:57:32","2025-09-04 21:57:32",NULL
"230","Kagama","2",,"50282","80.478039","8.061465","2025-09-04 21:57:32","2025-09-04 21:57:32",NULL
"231","Kahatagasdigiliya","2",,"50320","80.6833","8.4167","2025-09-04 21:57:32","2025-09-04 21:57:32",NULL
"232","Kahatagollewa","2",,"50562","80.65","8.45","2025-09-04 21:57:32","2025-09-04 21:57:32",NULL
"233","Kalakarambewa","2",,"50288","80.4667","8.0833","2025-09-04 21:57:32","2025-09-04 21:57:32",NULL
"234","Kalaoya","2",,"50226","80.6833","8.0667","2025-09-04 21:57:32","2025-09-04 21:57:32",NULL
"235","Kalawedi Ulpotha","2",,"50556","80.5083","8.5333","2025-09-04 21:57:32","2025-09-04 21:57:32",NULL
"236","Kallanchiya","2",,"50454","80.55","8.45","2025-09-04 21:57:32","2025-09-04 21:57:32",NULL
"237","Kalpitiya","2",,"61360","79.7667","8.2333","2025-09-04 21:57:32","2025-09-04 21:57:32",NULL
"238","Kalukele Badanagala","2",,"51037","80.55","7.9167","2025-09-04 21:57:32","2025-09-04 21:57:32",NULL
"239","Kapugallawa","2",,"50370","80.6783","8.4233","2025-09-04 21:57:32","2025-09-04 21:57:32",NULL
"240","Karagahawewa","2",,"50232","80.322772","8.23416","2025-09-04 21:57:32","2025-09-04 21:57:32",NULL
"241","Kashyapapura","2",,"51032","80.55","7.9167","2025-09-04 21:57:32","2025-09-04 21:57:32",NULL
"242","Kebithigollewa","2",,"50500","80.4833","8.5333","2025-09-04 21:57:32","2025-09-04 21:57:32",NULL
"243","Kekirawa","2",,"50100","80.59801","8.037462","2025-09-04 21:57:32","2025-09-04 21:57:32",NULL
"244","Kendewa","2",,"50452","80.6","8.4833","2025-09-04 21:57:32","2025-09-04 21:57:32",NULL
"245","Kiralogama","2",,"50259","80.37012","8.19407","2025-09-04 21:57:32","2025-09-04 21:57:32",NULL
"246","Kirigalwewa","2",,"50511","80.556651","8.537767","2025-09-04 21:57:32","2025-09-04 21:57:32",NULL
"247","Kirimundalama","2",,"61362","79.7667","8.2333","2025-09-04 21:57:32","2025-09-04 21:57:32",NULL
"248","Kitulhitiyawa","2",,"50132","80.63811","7.916592","2025-09-04 21:57:32","2025-09-04 21:57:32",NULL
"249","Kurundankulama","2",,"50062","80.45","8.2","2025-09-04 21:57:32","2025-09-04 21:57:32",NULL
"250","Labunoruwa","2",,"50088","80.617001","8.168026","2025-09-04 21:57:32","2025-09-04 21:57:32",NULL
"251","Ihalagama","2",,"50304","80.5","8.35","2025-09-04 21:57:32","2025-09-04 21:57:32",NULL
"252","Ipologama","2",,"50280","80.4667","8.0833","2025-09-04 21:57:32","2025-09-04 21:57:32",NULL
"253","Madatugama","2",,"50130","80.638217","7.940041","2025-09-04 21:57:32","2025-09-04 21:57:32",NULL
"254","Maha Elagamuwa","2",,"50126","80.61824","7.991935","2025-09-04 21:57:32","2025-09-04 21:57:32",NULL
"255","Mahabulankulama","2",,"50196","80.5266","7.9753","2025-09-04 21:57:32","2025-09-04 21:57:32",NULL
"256","Mahailluppallama","2",,"50270","80.3619","8.106","2025-09-04 21:57:32","2025-09-04 21:57:32",NULL
"257","Mahakanadarawa","2",,"50306","80.5","8.35","2025-09-04 21:57:32","2025-09-04 21:57:32",NULL
"258","Mahapothana","2",,"50327","80.6833","8.4167","2025-09-04 21:57:32","2025-09-04 21:57:32",NULL
"259","Mahasenpura","2",,"50574","80.5476","8.5595","2025-09-04 21:57:32","2025-09-04 21:57:32",NULL
"260","Mahawilachchiya","2",,"50022","80.4588","8.2814","2025-09-04 21:57:32","2025-09-04 21:57:32",NULL
"261","Mailagaswewa","2",,"50384","80.6333","8.4","2025-09-04 21:57:32","2025-09-04 21:57:32",NULL
"262","Malwanagama","2",,"50236","80.3333","8.225","2025-09-04 21:57:32","2025-09-04 21:57:32",NULL
"263","Maneruwa","2",,"50182","80.475966","7.895997","2025-09-04 21:57:32","2025-09-04 21:57:32",NULL
"264","Maradankadawala","2",,"50080","80.4833","8.1333","2025-09-04 21:57:32","2025-09-04 21:57:32",NULL
"265","Maradankalla","2",,"50308","80.537899","8.317498","2025-09-04 21:57:32","2025-09-04 21:57:32",NULL
"266","Medawachchiya","2",,"50500","80.495957","8.540822","2025-09-04 21:57:32","2025-09-04 21:57:32",NULL
"267","Megodawewa","2",,"50334","80.7333","8.2333","2025-09-04 21:57:32","2025-09-04 21:57:32",NULL
"269","Morakewa","2",,"50349","80.778223","8.513051","2025-09-04 21:57:32","2025-09-04 21:57:32",NULL
"270","Mulkiriyawa","2",,"50324","80.6833","8.4167","2025-09-04 21:57:32","2025-09-04 21:57:32",NULL
"271","Muriyakadawala","2",,"50344","80.654663","8.236464","2025-09-04 21:57:32","2025-09-04 21:57:32",NULL
"272","Nachchaduwa","2",,"50046","80.4667","8.2667","2025-09-04 21:57:32","2025-09-04 21:57:32",NULL
"273","Namalpura","2",,"50339","80.7333","8.2333","2025-09-04 21:57:32","2025-09-04 21:57:32",NULL
"274","Negampaha","2",,"50180","80.4597","7.9872","2025-09-04 21:57:32","2025-09-04 21:57:32",NULL
"275","Nochchiyagama","2",,"50200","80.20823","8.266802","2025-09-04 21:57:32","2025-09-04 21:57:32",NULL
"276","Nuwaragala","2",,"51039","80.55","7.9167","2025-09-04 21:57:32","2025-09-04 21:57:32",NULL
"277","Padavi Maithripura","2",,"50572","80.5476","8.5595","2025-09-04 21:57:32","2025-09-04 21:57:32",NULL
"278","Padavi Parakramapura","2",,"50582","80.5476","8.5595","2025-09-04 21:57:32","2025-09-04 21:57:32",NULL
"279","Padavi Sripura","2",,"50587","80.5476","8.5595","2025-09-04 21:57:32","2025-09-04 21:57:32",NULL
"280","Padavi Sritissapura","2",,"50588","80.5476","8.5595","2025-09-04 21:57:32","2025-09-04 21:57:32",NULL
"281","Padaviya","2",,"50570","80.5476","8.5595","2025-09-04 21:57:32","2025-09-04 21:57:32",NULL
"282","Padikaramaduwa","2",,"50338","80.7333","8.2333","2025-09-04 21:57:32","2025-09-04 21:57:32",NULL
"283","Pahala Halmillewa","2",,"50206","80.19116","8.21672","2025-09-04 21:57:32","2025-09-04 21:57:32",NULL
"284","Pahala Maragahawe","2",,"50220","80.6833","8.0667","2025-09-04 21:57:32","2025-09-04 21:57:32",NULL
"285","Pahalagama","2",,"50244","80.283767","8.186896","2025-09-04 21:57:32","2025-09-04 21:57:32",NULL
"286","Palugaswewa","2",,"50144","80.71918","8.053538","2025-09-04 21:57:32","2025-09-04 21:57:32",NULL
"287","Pandukabayapura","2",,"50448","80.46731","8.4467","2025-09-04 21:57:32","2025-09-04 21:57:32",NULL
"288","Pandulagama","2",,"50029","80.4588","8.2814","2025-09-04 21:57:32","2025-09-04 21:57:32",NULL
"289","Parakumpura","2",,"50326","80.6833","8.4167","2025-09-04 21:57:32","2025-09-04 21:57:32",NULL
"290","Parangiyawadiya","2",,"50354","80.910014","8.491831","2025-09-04 21:57:32","2025-09-04 21:57:32",NULL
"291","Parasangahawewa","2",,"50055","80.4333","8.4333","2025-09-04 21:57:32","2025-09-04 21:57:32",NULL
"292","Pelatiyawa","2",,"51033","80.55","7.9167","2025-09-04 21:57:32","2025-09-04 21:57:32",NULL
"293","Pemaduwa","2",,"50020","80.4588","8.2814","2025-09-04 21:57:32","2025-09-04 21:57:32",NULL
"294","Perimiyankulama","2",,"50004","80.535827","8.270584","2025-09-04 21:57:32","2025-09-04 21:57:32",NULL
"295","Pihimbiyagolewa","2",,"50512","80.5476","8.5595","2025-09-04 21:57:32","2025-09-04 21:57:32",NULL
"296","Pubbogama","2",,"50122","80.6","7.9167","2025-09-04 21:57:32","2025-09-04 21:57:32",NULL
"297","Punewa","2",,"50506","80.4667","8.6167","2025-09-04 21:57:32","2025-09-04 21:57:32",NULL
"298","Rajanganaya","2",,"50246","80.2833","8.1708","2025-09-04 21:57:32","2025-09-04 21:57:32",NULL
"299","Rambewa","2",,"50450","80.5","8.4333","2025-09-04 21:57:32","2025-09-04 21:57:32",NULL
"300","Rampathwila","2",,"50386","80.6333","8.4","2025-09-04 21:57:32","2025-09-04 21:57:32",NULL
"301","Rathmalgahawewa","2",,"50514","80.5476","8.5595","2025-09-04 21:57:32","2025-09-04 21:57:32",NULL
"302","Saliyapura","2",,"50008","80.4333","8.3389","2025-09-04 21:57:32","2025-09-04 21:57:32",NULL
"303","Seeppukulama","2",,"50380","80.6333","8.4","2025-09-04 21:57:32","2025-09-04 21:57:32",NULL
"304","Senapura","2",,"50284","80.4667","8.0833","2025-09-04 21:57:32","2025-09-04 21:57:32",NULL
"305","Sivalakulama","2",,"50068","80.641743","8.25237","2025-09-04 21:57:32","2025-09-04 21:57:32",NULL
"306","Siyambalewa","2",,"50184","80.5167","7.95","2025-09-04 21:57:32","2025-09-04 21:57:32",NULL
"307","Sravasthipura","2",,"50042","80.4333","8.2667","2025-09-04 21:57:32","2025-09-04 21:57:32",NULL
"308","Talawa","2",,"50230","80.35","8.2167","2025-09-04 21:57:32","2025-09-04 21:57:32",NULL
"309","Tambuttegama","2",,"50240","80.3","8.15","2025-09-04 21:57:32","2025-09-04 21:57:32",NULL
"310","Tammennawa","2",,"50104","80.6","8.0333","2025-09-04 21:57:32","2025-09-04 21:57:32",NULL
"311","Tantirimale","2",,"50016","80.3","8.4","2025-09-04 21:57:32","2025-09-04 21:57:32",NULL
"312","Telhiriyawa","2",,"50242","80.3333","8.15","2025-09-04 21:57:32","2025-09-04 21:57:32",NULL
"313","Tirappane","2",,"50072","80.3833","8.2167","2025-09-04 21:57:32","2025-09-04 21:57:32",NULL
"314","Tittagonewa","2",,"50558","80.75","8.7167","2025-09-04 21:57:32","2025-09-04 21:57:32",NULL
"315","Udunuwara Colony","2",,"50207","80.1917","8.2417","2025-09-04 21:57:32","2025-09-04 21:57:32",NULL
"316","Upuldeniya","2",,"50382","80.6333","8.4","2025-09-04 21:57:32","2025-09-04 21:57:32",NULL
"317","Uttimaduwa","2",,"50067","80.55487","8.254989","2025-09-04 21:57:32","2025-09-04 21:57:32",NULL
"318","Vellamanal","2",,"31053","81.1833","8.5167","2025-09-04 21:57:32","2025-09-04 21:57:32",NULL
"319","Viharapalugama","2",,"50012","80.3","8.4","2025-09-04 21:57:32","2025-09-04 21:57:32",NULL
"320","Wahalkada","2",,"50564","80.6222","8.5667","2025-09-04 21:57:32","2025-09-04 21:57:32",NULL
"321","Wahamalgollewa","2",,"50492","80.497451","8.479838","2025-09-04 21:57:32","2025-09-04 21:57:32",NULL
"322","Walagambahuwa","2",,"50086","80.499049","8.153134","2025-09-04 21:57:32","2025-09-04 21:57:32",NULL
"323","Walahaviddawewa","2",,"50516","80.5476","8.5595","2025-09-04 21:57:32","2025-09-04 21:57:32",NULL
"324","Welimuwapotana","2",,"50358","80.8667","8.4333","2025-09-04 21:57:32","2025-09-04 21:57:32",NULL
"325","Welioya Project","2",,"50586","80.5476","8.5595","2025-09-04 21:57:32","2025-09-04 21:57:32",NULL
"326","Akkarasiyaya","3",,"90166","80.9208","6.7792","2025-09-04 21:57:32","2025-09-04 21:57:32",NULL
"327","Aluketiyawa","3",,"90736","81.127134","7.317155","2025-09-04 21:57:32","2025-09-04 21:57:32",NULL
"328","Aluttaramma","3",,"90722","81.0667","7.2167","2025-09-04 21:57:32","2025-09-04 21:57:32",NULL
"329","Ambadandegama","3",,"90108","81.056492","6.81591","2025-09-04 21:57:32","2025-09-04 21:57:32",NULL
"330","Ambagasdowa","3",,"90300","80.892126","6.928519","2025-09-04 21:57:32","2025-09-04 21:57:32",NULL
"331","Arawa","3",,"90017","81.07755","7.162769","2025-09-04 21:57:32","2025-09-04 21:57:32",NULL
"332","Arawakumbura","3",,"90532","81.198802","7.084925","2025-09-04 21:57:32","2025-09-04 21:57:32",NULL
"333","Arawatta","3",,"90712","81.036976","7.328715","2025-09-04 21:57:32","2025-09-04 21:57:32",NULL
"334","Atakiriya","3",,"90542","81.1056","7.0667","2025-09-04 21:57:32","2025-09-04 21:57:32",NULL
"336","Baduluoya","3",,"90019","81.023867","7.151852","2025-09-04 21:57:32","2025-09-04 21:57:32",NULL
"337","Ballaketuwa","3",,"90092","81.097249","6.862905","2025-09-04 21:57:32","2025-09-04 21:57:32",NULL
"338","Bambarapana","3",,"90322","81.0375","7.1167","2025-09-04 21:57:32","2025-09-04 21:57:32",NULL
"339","Bandarawela","3",,"90100","80.990898","6.828867","2025-09-04 21:57:32","2025-09-04 21:57:32",NULL
"340","Beramada","3",,"90066","80.987238","7.055713","2025-09-04 21:57:32","2025-09-04 21:57:32",NULL
"341","Bibilegama","3",,"90502","81.141268","6.887473","2025-09-04 21:57:32","2025-09-04 21:57:32",NULL
"342","Boragas","3",,"90362","80.840162","6.901625","2025-09-04 21:57:32","2025-09-04 21:57:32",NULL
"343","Boralanda","3",,"90170","80.881603","6.828637","2025-09-04 21:57:32","2025-09-04 21:57:32",NULL
"344","Bowela","3",,"90302","80.9333","6.95","2025-09-04 21:57:32","2025-09-04 21:57:32",NULL
"345","Central Camp","3",,"32050","81.1759","7.3589","2025-09-04 21:57:32","2025-09-04 21:57:32",NULL
"346","Damanewela","3",,"32126","81.0583","7.2125","2025-09-04 21:57:32","2025-09-04 21:57:32",NULL
"347","Dambana","3",,"90714","81.1083","7.3583","2025-09-04 21:57:32","2025-09-04 21:57:32",NULL
"348","Dehiattakandiya","3",,"32150","81.0583","7.2125","2025-09-04 21:57:32","2025-09-04 21:57:32",NULL
"349","Demodara","3",,"90080","81.053273","6.899055","2025-09-04 21:57:32","2025-09-04 21:57:32",NULL
"350","Diganatenna","3",,"90132","80.9667","6.8667","2025-09-04 21:57:32","2025-09-04 21:57:32",NULL
"351","Dikkapitiya","3",,"90214","80.9669","6.7381","2025-09-04 21:57:32","2025-09-04 21:57:32",NULL
"352","Dimbulana","3",,"90324","80.948431","7.006897","2025-09-04 21:57:32","2025-09-04 21:57:32",NULL
"353","Divulapelessa","3",,"90726","81.0667","7.2167","2025-09-04 21:57:32","2025-09-04 21:57:32",NULL
"354","Diyatalawa","3",,"90150","80.9667","6.8","2025-09-04 21:57:32","2025-09-04 21:57:32",NULL
"355","Dulgolla","3",,"90104","81.012115","6.819618","2025-09-04 21:57:32","2025-09-04 21:57:32",NULL
"356","Ekiriyankumbura","3",,"91502","81.226709","7.269736","2025-09-04 21:57:32","2025-09-04 21:57:32",NULL
"358","Ettampitiya","3",,"90140","80.9853","6.9342","2025-09-04 21:57:32","2025-09-04 21:57:32",NULL
"359","Galauda","3",,"90065","80.981759","7.037347","2025-09-04 21:57:32","2025-09-04 21:57:32",NULL
"360","Galporuyaya","3",,"90752","81.05","7.4","2025-09-04 21:57:32","2025-09-04 21:57:32",NULL
"361","Gawarawela","3",,"90082","81.069668","6.897394","2025-09-04 21:57:32","2025-09-04 21:57:32",NULL
"362","Girandurukotte","3",,"90750","81.05","7.4","2025-09-04 21:57:32","2025-09-04 21:57:32",NULL
"363","Godunna","3",,"90067","80.975003","7.071959","2025-09-04 21:57:32","2025-09-04 21:57:32",NULL
"364","Gurutalawa","3",,"90208","80.9228","6.8431","2025-09-04 21:57:32","2025-09-04 21:57:32",NULL
"365","Haldummulla","3",,"90180","80.884385","6.77061","2025-09-04 21:57:32","2025-09-04 21:57:32",NULL
"366","Hali Ela","3",,"90060","81.0333","6.95","2025-09-04 21:57:32","2025-09-04 21:57:32",NULL
"367","Hangunnawa","3",,"90224","80.871427","6.948019","2025-09-04 21:57:32","2025-09-04 21:57:32",NULL
"369","Hebarawa","3",,"90724","81.0667","7.2167","2025-09-04 21:57:32","2025-09-04 21:57:32",NULL
"370","Heeloya","3",,"90112","80.9407","6.8212","2025-09-04 21:57:32","2025-09-04 21:57:32",NULL
"371","Helahalpe","3",,"90122","80.9407","6.8212","2025-09-04 21:57:32","2025-09-04 21:57:32",NULL
"372","Helapupula","3",,"90094","81.0722","6.8556","2025-09-04 21:57:32","2025-09-04 21:57:32",NULL
"373","Hopton","3",,"90524","81.1552","6.9594","2025-09-04 21:57:32","2025-09-04 21:57:32",NULL
"374","Idalgashinna","3",,"96167","80.9","6.7833","2025-09-04 21:57:32","2025-09-04 21:57:32",NULL
"375","Kahataruppa","3",,"90052","81.105188","7.023705","2025-09-04 21:57:32","2025-09-04 21:57:32",NULL
"376","Kalugahakandura","3",,"90546","81.094178","7.123675","2025-09-04 21:57:32","2025-09-04 21:57:32",NULL
"377","Kalupahana","3",,"90186","80.854521","6.770298","2025-09-04 21:57:32","2025-09-04 21:57:32",NULL
"378","Kebillawela","3",,"90102","80.993072","6.816937","2025-09-04 21:57:32","2025-09-04 21:57:32",NULL
"379","Kendagolla","3",,"90048","81.110073","6.990765","2025-09-04 21:57:32","2025-09-04 21:57:32",NULL
"380","Keselpotha","3",,"90738","81.083285","7.32819","2025-09-04 21:57:32","2025-09-04 21:57:32",NULL
"381","Ketawatta","3",,"90016","81.080813","7.103503","2025-09-04 21:57:32","2025-09-04 21:57:32",NULL
"382","Kiriwanagama","3",,"90184","80.91551","6.971183","2025-09-04 21:57:32","2025-09-04 21:57:32",NULL
"383","Koslanda","3",,"90190","81.027417","6.759935","2025-09-04 21:57:32","2025-09-04 21:57:32",NULL
"384","Kuruwitenna","3",,"90728","81.0667","7.2167","2025-09-04 21:57:32","2025-09-04 21:57:32",NULL
"385","Kuttiyagolla","3",,"90046","81.0833","7.0167","2025-09-04 21:57:32","2025-09-04 21:57:32",NULL
"386","Landewela","3",,"90068","81.000496","7.002113","2025-09-04 21:57:32","2025-09-04 21:57:32",NULL
"387","Liyangahawela","3",,"90106","81.032456","6.817452","2025-09-04 21:57:32","2025-09-04 21:57:32",NULL
"388","Lunugala","3",,"90530","81.199335","7.041299","2025-09-04 21:57:32","2025-09-04 21:57:32",NULL
"389","Lunuwatta","3",,"90310","80.917059","6.953933","2025-09-04 21:57:32","2025-09-04 21:57:32",NULL
"390","Madulsima","3",,"90535","81.133375","7.045064","2025-09-04 21:57:32","2025-09-04 21:57:32",NULL
"391","Mahiyanganaya","3",,"90700","81.1167","7.2444","2025-09-04 21:57:32","2025-09-04 21:57:32",NULL
"392","Makulella","3",,"90114","80.9407","6.8212","2025-09-04 21:57:32","2025-09-04 21:57:32",NULL
"393","Malgoda","3",,"90754","81.05","7.4","2025-09-04 21:57:32","2025-09-04 21:57:32",NULL
"394","Mapakadawewa","3",,"90730","81.1167","7.3","2025-09-04 21:57:32","2025-09-04 21:57:32",NULL
"395","Maspanna","3",,"90328","80.942159","7.024427","2025-09-04 21:57:32","2025-09-04 21:57:32",NULL
"396","Maussagolla","3",,"90582","81.147817","6.898433","2025-09-04 21:57:32","2025-09-04 21:57:32",NULL
"397","Mawanagama","3",,"32158","81.0583","7.2125","2025-09-04 21:57:32","2025-09-04 21:57:32",NULL
"398","Medawela Udukinda","3",,"90218","80.9279","6.846","2025-09-04 21:57:32","2025-09-04 21:57:32",NULL
"399","Meegahakiula","3",,"90015","80.9833","7.0833","2025-09-04 21:57:32","2025-09-04 21:57:32",NULL
"400","Metigahatenna","3",,"90540","81.0833","6.9667","2025-09-04 21:57:32","2025-09-04 21:57:32",NULL
"401","Mirahawatta","3",,"90134","80.9347","6.8817","2025-09-04 21:57:32","2025-09-04 21:57:32",NULL
"402","Miriyabedda","3",,"90504","81.15","6.9167","2025-09-04 21:57:32","2025-09-04 21:57:32",NULL
"403","Nawamedagama","3",,"32120","81.0583","7.2125","2025-09-04 21:57:32","2025-09-04 21:57:32",NULL
"404","Nelumgama","3",,"90042","81.0917","7","2025-09-04 21:57:32","2025-09-04 21:57:32",NULL
"405","Nikapotha","3",,"90165","80.97083","6.740622","2025-09-04 21:57:32","2025-09-04 21:57:32",NULL
"406","Nugatalawa","3",,"90216","80.8833","6.9","2025-09-04 21:57:32","2025-09-04 21:57:32",NULL
"407","Ohiya","3",,"90168","80.841789","6.821352","2025-09-04 21:57:32","2025-09-04 21:57:32",NULL
"408","Pahalarathkinda","3",,"90756","81.05","7.4","2025-09-04 21:57:32","2025-09-04 21:57:32",NULL
"409","Pallekiruwa","3",,"90534","81.227033","7.007551","2025-09-04 21:57:32","2025-09-04 21:57:32",NULL
"410","Passara","3",,"90500","81.151166","6.935017","2025-09-04 21:57:32","2025-09-04 21:57:32",NULL
"411","Pattiyagedara","3",,"90138","80.9507","6.8742","2025-09-04 21:57:32","2025-09-04 21:57:32",NULL
"412","Pelagahatenna","3",,"90522","81.1552","6.9594","2025-09-04 21:57:32","2025-09-04 21:57:32",NULL
"413","Perawella","3",,"90222","80.84264","6.943148","2025-09-04 21:57:32","2025-09-04 21:57:32",NULL
"414","Pitamaruwa","3",,"90544","81.135882","7.106546","2025-09-04 21:57:32","2025-09-04 21:57:32",NULL
"415","Pitapola","3",,"90171","80.884474","6.803692","2025-09-04 21:57:32","2025-09-04 21:57:32",NULL
"416","Puhulpola","3",,"90212","80.931109","6.907145","2025-09-04 21:57:32","2025-09-04 21:57:32",NULL
"417","Rajagalatenna","3",,"32068","81.125","7.5458","2025-09-04 21:57:32","2025-09-04 21:57:32",NULL
"418","Ratkarawwa","3",,"90164","80.9167","6.8","2025-09-04 21:57:32","2025-09-04 21:57:32",NULL
"419","Ridimaliyadda","3",,"90704","81.1","7.2333","2025-09-04 21:57:32","2025-09-04 21:57:32",NULL
"420","Silmiyapura","3",,"90364","80.843988","6.912388","2025-09-04 21:57:32","2025-09-04 21:57:32",NULL
"421","Sirimalgoda","3",,"90044","81.073671","7.003857","2025-09-04 21:57:32","2025-09-04 21:57:32",NULL
"422","Siripura","3",,"32155","81.0583","7.2125","2025-09-04 21:57:32","2025-09-04 21:57:32",NULL
"423","Sorabora Colony","3",,"90718","81.1083","7.3583","2025-09-04 21:57:32","2025-09-04 21:57:32",NULL
"424","Soragune","3",,"90183","80.8778","6.8333","2025-09-04 21:57:32","2025-09-04 21:57:32",NULL
"425","Soranatota","3",,"90008","81.05","7.0167","2025-09-04 21:57:32","2025-09-04 21:57:32",NULL
"426","Taldena","3",,"90014","81.05","7.0833","2025-09-04 21:57:32","2025-09-04 21:57:32",NULL
"427","Timbirigaspitiya","3",,"90012","81.05","7.0333","2025-09-04 21:57:32","2025-09-04 21:57:32",NULL
"428","Uduhawara","3",,"90226","80.85877","6.94706","2025-09-04 21:57:32","2025-09-04 21:57:32",NULL
"429","Uraniya","3",,"90702","81.102818","7.237143","2025-09-04 21:57:32","2025-09-04 21:57:32",NULL
"430","Uva Karandagolla","3",,"90091","81.0667","6.8333","2025-09-04 21:57:32","2025-09-04 21:57:32",NULL
"431","Uva Mawelagama","3",,"90192","81.0167","6.7333","2025-09-04 21:57:32","2025-09-04 21:57:32",NULL
"432","Uva Tenna","3",,"90188","80.8778","6.8333","2025-09-04 21:57:32","2025-09-04 21:57:32",NULL
"433","Uva Tissapura","3",,"90734","81.1167","7.3","2025-09-04 21:57:32","2025-09-04 21:57:32",NULL
"434","Welimada","3",,"90200","80.913222","6.906059","2025-09-04 21:57:32","2025-09-04 21:57:32",NULL
"435","Werunketagoda","3",,"32062","81.125","7.5458","2025-09-04 21:57:32","2025-09-04 21:57:32",NULL
"436","Wewatta","3",,"90716","81.201255","7.337729","2025-09-04 21:57:32","2025-09-04 21:57:32",NULL
"437","Wineethagama","3",,"90034","80.937","7.029","2025-09-04 21:57:32","2025-09-04 21:57:32",NULL
"438","Yalagamuwa","3",,"90329","80.950541","7.047834","2025-09-04 21:57:32","2025-09-04 21:57:32",NULL
"439","Yalwela","3",,"90706","81.15","7.2667","2025-09-04 21:57:32","2025-09-04 21:57:32",NULL
"440","Addalaichenai","4",,"32350","81.75","7.4833","2025-09-04 21:57:32","2025-09-04 21:57:32",NULL
"441","Ampilanthurai","4",,"30162","81.4411","7.8597","2025-09-04 21:57:32","2025-09-04 21:57:32",NULL
"442","Araipattai","4",,"30150","81.725335","7.667705","2025-09-04 21:57:32","2025-09-04 21:57:32",NULL
"443","Ayithiyamalai","4",,"30362","81.574798","7.670934","2025-09-04 21:57:32","2025-09-04 21:57:32",NULL
"444","Bakiella","4",,"30206","81.7583","7.5083","2025-09-04 21:57:32","2025-09-04 21:57:32",NULL
"446","Cheddipalayam","4",,"30194","81.783189","7.575161","2025-09-04 21:57:32","2025-09-04 21:57:32",NULL
"447","Chenkaladi","4",,"30350","81.6","7.7833","2025-09-04 21:57:32","2025-09-04 21:57:32",NULL
"449","Kaluwanchikudi","4",,"30200","81.7833","7.5167","2025-09-04 21:57:32","2025-09-04 21:57:32",NULL
"450","Kaluwankemy","4",,"30372","81.5667","7.8","2025-09-04 21:57:32","2025-09-04 21:57:32",NULL
"451","Kannankudah","4",,"30016","81.674125","7.675505","2025-09-04 21:57:32","2025-09-04 21:57:32",NULL
"452","Karadiyanaru","4",,"30354","81.531117","7.689478","2025-09-04 21:57:32","2025-09-04 21:57:32",NULL
"453","Kathiraveli","4",,"30456","81.360298","8.243933","2025-09-04 21:57:32","2025-09-04 21:57:32",NULL
"454","Kattankudi","4",,"30100","81.73","7.675","2025-09-04 21:57:32","2025-09-04 21:57:32",NULL
"455","Kiran","4",,"30394","81.529737","7.866841","2025-09-04 21:57:32","2025-09-04 21:57:32",NULL
"456","Kirankulam","4",,"30159","81.764245","7.615628","2025-09-04 21:57:32","2025-09-04 21:57:32",NULL
"457","Koddaikallar","4",,"30249","81.6639","7.6389","2025-09-04 21:57:32","2025-09-04 21:57:32",NULL
"458","Kokkaddichcholai","4",,"30160","81.4411","7.8597","2025-09-04 21:57:32","2025-09-04 21:57:32",NULL
"459","Kurukkalmadam","4",,"30192","81.77497","7.594069","2025-09-04 21:57:32","2025-09-04 21:57:32",NULL
"460","Mandur","4",,"30220","81.762407","7.482114","2025-09-04 21:57:32","2025-09-04 21:57:32",NULL
"461","Miravodai","4",,"30426","81.5167","7.9","2025-09-04 21:57:32","2025-09-04 21:57:32",NULL
"462","Murakottanchanai","4",,"30392","81.5333","7.8667","2025-09-04 21:57:32","2025-09-04 21:57:32",NULL
"463","Navagirinagar","4",,"30238","81.725","7.525","2025-09-04 21:57:32","2025-09-04 21:57:32",NULL
"464","Navatkadu","4",,"30018","81.7167","7.5833","2025-09-04 21:57:32","2025-09-04 21:57:32",NULL
"465","Oddamavadi","4",,"30420","81.5167","7.9167","2025-09-04 21:57:32","2025-09-04 21:57:32",NULL
"466","Palamunai","4",,"32354","81.75","7.4833","2025-09-04 21:57:32","2025-09-04 21:57:32",NULL
"467","Pankudavely","4",,"30352","81.5667","7.75","2025-09-04 21:57:32","2025-09-04 21:57:32",NULL
"468","Periyaporativu","4",,"30230","81.764557","7.536243","2025-09-04 21:57:32","2025-09-04 21:57:32",NULL
"469","Periyapullumalai","4",,"30358","81.47434","7.561255","2025-09-04 21:57:32","2025-09-04 21:57:32",NULL
"470","Pillaiyaradi","4",,"30022","81.6333","7.75","2025-09-04 21:57:32","2025-09-04 21:57:32",NULL
"471","Punanai","4",,"30428","81.3833","7.9667","2025-09-04 21:57:32","2025-09-04 21:57:32",NULL
"472","Thannamunai","4",,"30024","81.645852","7.76355","2025-09-04 21:57:32","2025-09-04 21:57:32",NULL
"473","Thettativu","4",,"30196","81.7833","7.5833","2025-09-04 21:57:32","2025-09-04 21:57:32",NULL
"474","Thikkodai","4",,"30236","81.684177","7.525269","2025-09-04 21:57:32","2025-09-04 21:57:32",NULL
"475","Thirupalugamam","4",,"30234","81.725","7.525","2025-09-04 21:57:32","2025-09-04 21:57:32",NULL
"476","Unnichchai","4",,"30364","81.55","7.6167","2025-09-04 21:57:32","2025-09-04 21:57:32",NULL
"477","Vakaneri","4",,"30424","81.4333","7.9167","2025-09-04 21:57:32","2025-09-04 21:57:32",NULL
"479","Valaichenai","4",,"30400","81.6","7.7","2025-09-04 21:57:32","2025-09-04 21:57:32",NULL
"480","Vantharumoolai","4",,"30376","81.591476","7.807445","2025-09-04 21:57:32","2025-09-04 21:57:32",NULL
"481","Vellavely","4",,"30204","81.7333","7.5","2025-09-04 21:57:32","2025-09-04 21:57:32",NULL
"482","Akarawita","5",,"10732","80.1","6.95","2025-09-04 21:57:32","2025-09-04 21:57:32",NULL
"485","Avissawella","5",,"10700","80.211692","6.955003","2025-09-04 21:57:32","2025-09-04 21:57:32",NULL
"486","Batawala","5",,"10513","80.051592","6.877924","2025-09-04 21:57:32","2025-09-04 21:57:32",NULL
"488","Biyagama","5",,"11650","79.9889","6.9408","2025-09-04 21:57:32","2025-09-04 21:57:32",NULL
"489","Bope","5",,"10522","80.1167","6.8333","2025-09-04 21:57:32","2025-09-04 21:57:32",NULL
"491","Dedigamuwa","5",,"10656","80.0622","6.9115","2025-09-04 21:57:32","2025-09-04 21:57:32",NULL
"493","Deltara","5",,"10302","79.9167","6.7833","2025-09-04 21:57:32","2025-09-04 21:57:32",NULL
"494","Habarakada","5",,"10204","80.017704","6.882518","2025-09-04 21:57:32","2025-09-04 21:57:32",NULL
"496","Hiripitya","5",,"10232","79.95","6.85","2025-09-04 21:57:32","2025-09-04 21:57:32",NULL
"499","Horagala","5",,"10502","80.066995","6.807635","2025-09-04 21:57:32","2025-09-04 21:57:32",NULL
"500","Kaduwela","5",,"10640","79.984817","6.930497","2025-09-04 21:57:32","2025-09-04 21:57:32",NULL
"501","Kaluaggala","5",,"11224","80.1","6.9167","2025-09-04 21:57:32","2025-09-04 21:57:32",NULL
"502","Kapugoda","5",,"10662","80.1","6.9486","2025-09-04 21:57:32","2025-09-04 21:57:32",NULL
"503","Kehelwatta","5",,"12550","79.9167","6.75","2025-09-04 21:57:32","2025-09-04 21:57:32",NULL
"504","Kiriwattuduwa","5",,"10208","80.009759","6.804157","2025-09-04 21:57:32","2025-09-04 21:57:32",NULL
"506","Kosgama","5",,"10730","80.1411","6.9333","2025-09-04 21:57:32","2025-09-04 21:57:32",NULL
"507","Madapatha","5",,"10306","79.930103","6.766824","2025-09-04 21:57:32","2025-09-04 21:57:32",NULL
"512","Mullegama","5",,"10202","80.012959","6.887403","2025-09-04 21:57:32","2025-09-04 21:57:32",NULL
"513","Napawela","5",,"10704","80.2183","6.9531","2025-09-04 21:57:32","2025-09-04 21:57:32",NULL
"515","Padukka","5",,"10500","80.090301","6.837834","2025-09-04 21:57:32","2025-09-04 21:57:32",NULL
"518","Pitipana Homagama","5",,"10206","80.016","6.8477","2025-09-04 21:57:32","2025-09-04 21:57:32",NULL
"519","Polgasowita","5",,"10320","79.9811","6.7842","2025-09-04 21:57:32","2025-09-04 21:57:32",NULL
"520","Pugoda","5",,"10660","80.1222","6.9703","2025-09-04 21:57:32","2025-09-04 21:57:32",NULL
"521","Ranala","5",,"10654","80.032962","6.915253","2025-09-04 21:57:32","2025-09-04 21:57:32",NULL
"522","Siddamulla","5",,"10304","79.955978","6.815785","2025-09-04 21:57:32","2025-09-04 21:57:32",NULL
"523","Siyambalagoda","5",,"81462","79.966845","6.800041","2025-09-04 21:57:32","2025-09-04 21:57:32",NULL
"525","Talawatugoda","5",,"10116","79.9411","6.8692","2025-09-04 21:57:32","2025-09-04 21:57:32",NULL
"526","Tummodara","5",,"10682","80.1353","6.9061","2025-09-04 21:57:32","2025-09-04 21:57:32",NULL
"527","Waga","5",,"10680","80.1353","6.9061","2025-09-04 21:57:32","2025-09-04 21:57:32",NULL
"543","Agaliya","6",,"80212","80.2","6.1833","2025-09-04 21:57:32","2025-09-04 21:57:32",NULL
"544","Ahangama","6",,"80650","80.370204","5.970765","2025-09-04 21:57:32","2025-09-04 21:57:32",NULL
"545","Ahungalla","6",,"80562","80.03029","6.315216","2025-09-04 21:57:32","2025-09-04 21:57:32",NULL
"546","Akmeemana","6",,"80090","80.3032","6.1845","2025-09-04 21:57:32","2025-09-04 21:57:32",NULL
"547","Alawatugoda","11",,"20140","80","6.4167","2025-09-04 21:57:32","2025-09-04 21:57:32",NULL
"548","Aluthwala","6",,"80332","80.136538","6.180801","2025-09-04 21:57:32","2025-09-04 21:57:32",NULL
"549","Ampegama","6",,"80204","80.14453","6.193907","2025-09-04 21:57:32","2025-09-04 21:57:32",NULL
"550","Amugoda","6",,"80422","80.22104","6.314635","2025-09-04 21:57:32","2025-09-04 21:57:32",NULL
"551","Anangoda","6",,"80044","80.2389","6.0722","2025-09-04 21:57:32","2025-09-04 21:57:32",NULL
"552","Angulugaha","6",,"80122","80.322148","6.036963","2025-09-04 21:57:32","2025-09-04 21:57:32",NULL
"553","Ankokkawala","6",,"80048","80.274014","6.05329","2025-09-04 21:57:32","2025-09-04 21:57:32",NULL
"554","Aselapura","21",,"51072","80.0333","6.3167","2025-09-04 21:57:32","2025-09-04 21:57:32",NULL
"555","Baddegama","6",,"80200","80.201841","6.165975","2025-09-04 21:57:32","2025-09-04 21:57:32",NULL
"556","Balapitiya","6",,"80550","80.036054","6.269254","2025-09-04 21:57:32","2025-09-04 21:57:32",NULL
"557","Banagala","6",,"80143","80.42","6.2706","2025-09-04 21:57:32","2025-09-04 21:57:32",NULL
"558","Batapola","6",,"80320","80.120034","6.235697","2025-09-04 21:57:32","2025-09-04 21:57:32",NULL
"560","Boossa","6",,"80270","80.2","6.2233","2025-09-04 21:57:32","2025-09-04 21:57:32",NULL
"561","Dellawa","6",,"81477","80.452741","6.335012","2025-09-04 21:57:32","2025-09-04 21:57:32",NULL
"562","Dikkumbura","6",,"80654","80.376153","6.012945","2025-09-04 21:57:32","2025-09-04 21:57:32",NULL
"563","Dodanduwa","6",,"80250","80.1456","6.0967","2025-09-04 21:57:32","2025-09-04 21:57:32",NULL
"564","Ella Tanabaddegama","6",,"80402","80.1988","6.2922","2025-09-04 21:57:32","2025-09-04 21:57:32",NULL
"565","Elpitiya","6",,"80400","80.171923","6.300214","2025-09-04 21:57:32","2025-09-04 21:57:32",NULL
"567","Ginimellagaha","6",,"80220","80.2","6.2233","2025-09-04 21:57:32","2025-09-04 21:57:32",NULL
"568","Gintota","6",,"80280","80.1839","6.0564","2025-09-04 21:57:32","2025-09-04 21:57:32",NULL
"569","Godahena","6",,"80302","80.0667","6.2333","2025-09-04 21:57:32","2025-09-04 21:57:32",NULL
"570","Gonamulla Junction","6",,"80054","80.3","6.0667","2025-09-04 21:57:32","2025-09-04 21:57:32",NULL
"571","Gonapinuwala","6",,"80230","80.2","6.2233","2025-09-04 21:57:32","2025-09-04 21:57:32",NULL
"572","Habaraduwa","6",,"80630","80.326","6.0043","2025-09-04 21:57:32","2025-09-04 21:57:32",NULL
"573","Haburugala","6",,"80506","80.038306","6.4052","2025-09-04 21:57:32","2025-09-04 21:57:32",NULL
"575","Hiniduma","6",,"80080","80.328888","6.316028","2025-09-04 21:57:32","2025-09-04 21:57:32",NULL
"576","Hiyare","6",,"80056","80.317871","6.079898","2025-09-04 21:57:32","2025-09-04 21:57:32",NULL
"577","Kahaduwa","6",,"80460","80.21","6.2244","2025-09-04 21:57:32","2025-09-04 21:57:32",NULL
"578","Kahawa","6",,"80312","80.07601","6.185429","2025-09-04 21:57:32","2025-09-04 21:57:32",NULL
"579","Karagoda","6",,"80151","80.395041","6.084182","2025-09-04 21:57:32","2025-09-04 21:57:32",NULL
"580","Karandeniya","6",,"80360","80.072462","6.260467","2025-09-04 21:57:32","2025-09-04 21:57:32",NULL
"581","Kosgoda","6",,"80570","80.028315","6.332288","2025-09-04 21:57:32","2025-09-04 21:57:32",NULL
"582","Kottawagama","6",,"80062","80.3419","6.1375","2025-09-04 21:57:32","2025-09-04 21:57:32",NULL
"583","Kottegoda","6",,"81180","80.1","6.1667","2025-09-04 21:57:32","2025-09-04 21:57:32",NULL
"584","Kuleegoda","6",,"80328","80.1167","6.2167","2025-09-04 21:57:32","2025-09-04 21:57:32",NULL
"585","Magedara","6",,"80152","80.393927","6.108129","2025-09-04 21:57:32","2025-09-04 21:57:32",NULL
"586","Mahawela Sinhapura","21",,"51076","80.0333","6.3167","2025-09-04 21:57:32","2025-09-04 21:57:32",NULL
"587","Mapalagama","6",,"80112","80.27784","6.234713","2025-09-04 21:57:32","2025-09-04 21:57:32",NULL
"588","Mapalagama Central","6",,"80116","80.3","6.2167","2025-09-04 21:57:32","2025-09-04 21:57:32",NULL
"589","Mattaka","6",,"80424","80.254218","6.302366","2025-09-04 21:57:32","2025-09-04 21:57:32",NULL
"590","Meda-Keembiya","6",,"80092","80.3032","6.1845","2025-09-04 21:57:32","2025-09-04 21:57:32",NULL
"591","Meetiyagoda","6",,"80330","80.093504","6.189135","2025-09-04 21:57:32","2025-09-04 21:57:32",NULL
"592","Nagoda","6",,"80110","80.277829","6.201296","2025-09-04 21:57:32","2025-09-04 21:57:32",NULL
"593","Nakiyadeniya","6",,"80064","80.338164","6.143029","2025-09-04 21:57:32","2025-09-04 21:57:32",NULL
"594","Nawadagala","6",,"80416","80.134175","6.304655","2025-09-04 21:57:32","2025-09-04 21:57:32",NULL
"595","Neluwa","6",,"80082","80.363267","6.37393","2025-09-04 21:57:32","2025-09-04 21:57:32",NULL
"596","Nindana","6",,"80318","80.107663","6.207731","2025-09-04 21:57:32","2025-09-04 21:57:32",NULL
"597","Pahala Millawa","6",,"81472","80.475431","6.293995","2025-09-04 21:57:32","2025-09-04 21:57:32",NULL
"598","Panangala","6",,"80075","80.334525","6.274182","2025-09-04 21:57:32","2025-09-04 21:57:32",NULL
"599","Pannimulla Panagoda","6",,"80086","80.3653","6.36","2025-09-04 21:57:32","2025-09-04 21:57:32",NULL
"600","Parana ThanaYamgoda","6",,"80114","80.3","6.2167","2025-09-04 21:57:32","2025-09-04 21:57:32",NULL
"601","Patana","20",,"22012","80.1167","6.1333","2025-09-04 21:57:32","2025-09-04 21:57:32",NULL
"602","Pitigala","6",,"80420","80.217851","6.348894","2025-09-04 21:57:32","2025-09-04 21:57:32",NULL
"603","Poddala","6",,"80170","80.2167","6.1167","2025-09-04 21:57:32","2025-09-04 21:57:32",NULL
"604","Polgampola","10",,"12136","80.4383","6.3244","2025-09-04 21:57:32","2025-09-04 21:57:32",NULL
"605","Porawagama","6",,"80408","80.231811","6.279568","2025-09-04 21:57:32","2025-09-04 21:57:32",NULL
"606","Rantotuwila","6",,"80354","80.0833","6.3833","2025-09-04 21:57:32","2025-09-04 21:57:32",NULL
"607","Talagampola","6",,"80058","80.3","6.0667","2025-09-04 21:57:32","2025-09-04 21:57:32",NULL
"608","Talgaspe","6",,"80406","80.2","6.3","2025-09-04 21:57:32","2025-09-04 21:57:32",NULL
"610","Tawalama","6",,"80148","80.3333","6.3333","2025-09-04 21:57:32","2025-09-04 21:57:32",NULL
"611","Tiranagama","6",,"80244","80.1167","6.1333","2025-09-04 21:57:32","2025-09-04 21:57:32",NULL
"612","Udalamatta","6",,"80108","80.306106","6.18924","2025-09-04 21:57:32","2025-09-04 21:57:32",NULL
"613","Udugama","6",,"80070","80.338951","6.188469","2025-09-04 21:57:32","2025-09-04 21:57:32",NULL
"614","Uluvitike","6",,"80168","80.309","6.3056","2025-09-04 21:57:32","2025-09-04 21:57:32",NULL
"616","Unenwitiya","6",,"80214","80.225","6.2417","2025-09-04 21:57:32","2025-09-04 21:57:32",NULL
"617","Uragaha","6",,"80352","80.1167","6.35","2025-09-04 21:57:32","2025-09-04 21:57:32",NULL
"618","Uragasmanhandiya","6",,"80350","80.082277","6.358461","2025-09-04 21:57:32","2025-09-04 21:57:32",NULL
"619","Wakwella","6",,"80042","80.1833","6.1","2025-09-04 21:57:32","2025-09-04 21:57:32",NULL
"620","Walahanduwa","6",,"80046","80.251763","6.05443","2025-09-04 21:57:32","2025-09-04 21:57:32",NULL
"621","Wanchawela","6",,"80120","80.3167","6.0333","2025-09-04 21:57:32","2025-09-04 21:57:32",NULL
"622","Wanduramba","6",,"80100","80.252794","6.136388","2025-09-04 21:57:32","2025-09-04 21:57:32",NULL
"623","Warukandeniya","6",,"80084","80.43131","6.381574","2025-09-04 21:57:32","2025-09-04 21:57:32",NULL
"624","Watugedara","6",,"80340","80.05","6.25","2025-09-04 21:57:32","2025-09-04 21:57:32",NULL
"625","Weihena","6",,"80216","80.23392","6.310127","2025-09-04 21:57:32","2025-09-04 21:57:32",NULL
"626","Welikanda","21",,"51070","80.0333","6.3167","2025-09-04 21:57:32","2025-09-04 21:57:32",NULL
"627","Wilanagama","11",,"20142","80","6.4167","2025-09-04 21:57:32","2025-09-04 21:57:32",NULL
"628","Yakkalamulla","6",,"80150","80.349195","6.109027","2025-09-04 21:57:32","2025-09-04 21:57:32",NULL
"629","Yatalamatta","6",,"80107","80.293052","6.172247","2025-09-04 21:57:32","2025-09-04 21:57:32",NULL
"630","Akaragama","7",,"11536","79.958057","7.262603","2025-09-04 21:57:32","2025-09-04 21:57:32",NULL
"631","Ambagaspitiya","7",,"11052","80.0667","7.0833","2025-09-04 21:57:32","2025-09-04 21:57:32",NULL
"632","Ambepussa","7",,"11212","80.1667","7.25","2025-09-04 21:57:32","2025-09-04 21:57:32",NULL
"633","Andiambalama","7",,"11558","79.902344","7.188346","2025-09-04 21:57:32","2025-09-04 21:57:32",NULL
"634","Attanagalla","7",,"11120","80.1328","7.1119","2025-09-04 21:57:32","2025-09-04 21:57:32",NULL
"635","Badalgama","7",,"11538","79.978003","7.291218","2025-09-04 21:57:32","2025-09-04 21:57:32",NULL
"636","Banduragoda","7",,"11244","80.0678","7.2319","2025-09-04 21:57:32","2025-09-04 21:57:32",NULL
"637","Batuwatta","7",,"11011","79.932048","7.058399","2025-09-04 21:57:32","2025-09-04 21:57:32",NULL
"638","Bemmulla","7",,"11040","80.028191","7.120933","2025-09-04 21:57:32","2025-09-04 21:57:32",NULL
"639","Biyagama IPZ","7",,"11672","80.0153","6.9492","2025-09-04 21:57:32","2025-09-04 21:57:32",NULL
"640","Bokalagama","7",,"11216","80.15","7.2333","2025-09-04 21:57:32","2025-09-04 21:57:32",NULL
"641","Bollete (WP)","7",,"11024","79.95","7.0667","2025-09-04 21:57:32","2025-09-04 21:57:32",NULL
"642","Bopagama","7",,"11134","80.15868","7.079641","2025-09-04 21:57:32","2025-09-04 21:57:32",NULL
"643","Buthpitiya","7",,"11720","80.051854","7.042846","2025-09-04 21:57:32","2025-09-04 21:57:32",NULL
"644","Dagonna","7",,"11524","79.927455","7.221568","2025-09-04 21:57:32","2025-09-04 21:57:32",NULL
"645","Danowita","7",,"11896","80.1758","7.2028","2025-09-04 21:57:32","2025-09-04 21:57:32",NULL
"646","Debahera","7",,"11889","80.0981","7.1389","2025-09-04 21:57:32","2025-09-04 21:57:32",NULL
"647","Dekatana","7",,"11690","80.035385","6.968317","2025-09-04 21:57:32","2025-09-04 21:57:32",NULL
"648","Delgoda","7",,"11700","80.01576","6.986583","2025-09-04 21:57:32","2025-09-04 21:57:32",NULL
"649","Delwagura","7",,"11228","80.003272","7.265367","2025-09-04 21:57:32","2025-09-04 21:57:32",NULL
"650","Demalagama","7",,"11692","80.046886","6.988934","2025-09-04 21:57:32","2025-09-04 21:57:32",NULL
"651","Demanhandiya","7",,"11270","79.9","7.2333","2025-09-04 21:57:32","2025-09-04 21:57:32",NULL
"652","Dewalapola","7",,"11102","79.997446","7.162553","2025-09-04 21:57:32","2025-09-04 21:57:32",NULL
"653","Divulapitiya","7",,"11250","80.0156","7.2167","2025-09-04 21:57:32","2025-09-04 21:57:32",NULL
"654","Divuldeniya","7",,"11208","80.1","7.3","2025-09-04 21:57:32","2025-09-04 21:57:32",NULL
"655","Dompe","7",,"11680","80.055083","6.949806","2025-09-04 21:57:32","2025-09-04 21:57:32",NULL
"656","Dunagaha","7",,"11264","79.9756","7.2342","2025-09-04 21:57:32","2025-09-04 21:57:32",NULL
"657","Ekala","7",,"11380","79.91532","7.105558","2025-09-04 21:57:32","2025-09-04 21:57:32",NULL
"658","Ellakkala","7",,"11116","80.132524","7.135968","2025-09-04 21:57:32","2025-09-04 21:57:32",NULL
"659","Essella","7",,"11108","80.021603","7.178736","2025-09-04 21:57:32","2025-09-04 21:57:32",NULL
"660","Galedanda","7",,"90206","79.930611","6.964202","2025-09-04 21:57:32","2025-09-04 21:57:32",NULL
"661","Gampaha","7",,"11000","79.9942","7.0917","2025-09-04 21:57:32","2025-09-04 21:57:32",NULL
"662","Ganemulla","7",,"11020","79.963294","7.064183","2025-09-04 21:57:32","2025-09-04 21:57:32",NULL
"663","Giriulla","7",,"60140","80.1267","7.3275","2025-09-04 21:57:32","2025-09-04 21:57:32",NULL
"664","Gonawala","7",,"11630","79.9992","6.9612","2025-09-04 21:57:32","2025-09-04 21:57:32",NULL
"665","Halpe","7",,"70145","80.10821","7.261935","2025-09-04 21:57:32","2025-09-04 21:57:32",NULL
"666","Hapugastenna","7",,"70164","80.1667","7.1","2025-09-04 21:57:32","2025-09-04 21:57:32",NULL
"667","Heiyanthuduwa","7",,"11618","79.963309","6.96283","2025-09-04 21:57:32","2025-09-04 21:57:32",NULL
"668","Hinatiyana Madawala","7",,"11568","79.95","7.1667","2025-09-04 21:57:32","2025-09-04 21:57:32",NULL
"669","Hiswella","7",,"11734","80.160869","7.021559","2025-09-04 21:57:32","2025-09-04 21:57:32",NULL
"670","Horampella","7",,"11564","79.976771","7.185188","2025-09-04 21:57:32","2025-09-04 21:57:32",NULL
"671","Hunumulla","7",,"11262","79.996921","7.244925","2025-09-04 21:57:32","2025-09-04 21:57:32",NULL
"672","Hunupola","7",,"60582","80.130625","7.111463","2025-09-04 21:57:32","2025-09-04 21:57:32",NULL
"673","Ihala Madampella","7",,"11265","79.960941","7.250345","2025-09-04 21:57:32","2025-09-04 21:57:32",NULL
"674","Imbulgoda","7",,"11856","79.9931","7.035","2025-09-04 21:57:32","2025-09-04 21:57:32",NULL
"677","Kahatowita","7",,"11144","80.1167","7.0667","2025-09-04 21:57:32","2025-09-04 21:57:32",NULL
"678","Kalagedihena","7",,"11875","80.058001","7.118004","2025-09-04 21:57:32","2025-09-04 21:57:32",NULL
"679","Kaleliya","7",,"11160","80.1136","7.195","2025-09-04 21:57:32","2025-09-04 21:57:32",NULL
"681","Katana","7",,"11534","79.9078","7.2517","2025-09-04 21:57:32","2025-09-04 21:57:32",NULL
"682","Katudeniya","7",,"21016","80.0833","7.3","2025-09-04 21:57:32","2025-09-04 21:57:32",NULL
"684","Katunayake Air Force Camp","7",,"11440","79.8782","7.1407","2025-09-04 21:57:32","2025-09-04 21:57:32",NULL
"685","Katunayake(FTZ)","7",,"11420","79.8782","7.1407","2025-09-04 21:57:32","2025-09-04 21:57:32",NULL
"686","Katuwellegama","7",,"11526","79.94572","7.208557","2025-09-04 21:57:32","2025-09-04 21:57:32",NULL
"688","Kimbulapitiya","7",,"11522","79.908937","7.202265","2025-09-04 21:57:32","2025-09-04 21:57:32",NULL
"689","Kirindiwela","7",,"11730","80.126707","7.044223","2025-09-04 21:57:32","2025-09-04 21:57:32",NULL
"690","Kitalawalana","7",,"11206","80.1","7.3","2025-09-04 21:57:32","2025-09-04 21:57:32",NULL
"691","Kochchikade","7",,"11540","79.8542","7.2581","2025-09-04 21:57:32","2025-09-04 21:57:32",NULL
"692","Kotadeniyawa","7",,"11232","80.05581","7.279861","2025-09-04 21:57:32","2025-09-04 21:57:32",NULL
"693","Kotugoda","7",,"11390","79.9297","7.1217","2025-09-04 21:57:32","2025-09-04 21:57:32",NULL
"694","Kumbaloluwa","7",,"11105","80.082233","7.179375","2025-09-04 21:57:32","2025-09-04 21:57:32",NULL
"695","Loluwagoda","7",,"11204","80.126624","7.294586","2025-09-04 21:57:32","2025-09-04 21:57:32",NULL
"696","Mabodale","7",,"11114","80.0167","7.2","2025-09-04 21:57:32","2025-09-04 21:57:32",NULL
"697","Madelgamuwa","7",,"11033","79.948175","7.110062","2025-09-04 21:57:32","2025-09-04 21:57:32",NULL
"698","Makewita","7",,"11358","79.9333","7.1","2025-09-04 21:57:32","2025-09-04 21:57:32",NULL
"699","Makola","7",,"11640","79.9525","6.983178","2025-09-04 21:57:32","2025-09-04 21:57:32",NULL
"700","Malwana","7",,"11670","80.012561","6.951988","2025-09-04 21:57:32","2025-09-04 21:57:32",NULL
"701","Mandawala","7",,"11061","80.097082","7.003066","2025-09-04 21:57:32","2025-09-04 21:57:32",NULL
"702","Marandagahamula","7",,"11260","79.9696","7.2447","2025-09-04 21:57:32","2025-09-04 21:57:32",NULL
"703","Mellawagedara","7",,"11234","80.023977","7.285808","2025-09-04 21:57:32","2025-09-04 21:57:32",NULL
"705","Mirigama","7",,"11200","80.1325","7.2414","2025-09-04 21:57:32","2025-09-04 21:57:32",NULL
"706","Miriswatta","7",,"80508","80.0183","7.0711","2025-09-04 21:57:32","2025-09-04 21:57:32",NULL
"707","Mithirigala","7",,"11742","80.0648","6.9648","2025-09-04 21:57:32","2025-09-04 21:57:32",NULL
"708","Muddaragama","7",,"11112","80.05","7.2167","2025-09-04 21:57:32","2025-09-04 21:57:32",NULL
"709","Mudungoda","7",,"11056","79.999092","7.064698","2025-09-04 21:57:32","2025-09-04 21:57:32",NULL
"710","Mulleriyawa New Town","7",,"10620","80.0549","6.9301","2025-09-04 21:57:32","2025-09-04 21:57:32",NULL
"711","Naranwala","7",,"11063","80.027404","7.001631","2025-09-04 21:57:32","2025-09-04 21:57:32",NULL
"712","Nawana","7",,"11222","80.092618","7.270062","2025-09-04 21:57:32","2025-09-04 21:57:32",NULL
"713","Nedungamuwa","7",,"11066","80.0333","7.05","2025-09-04 21:57:32","2025-09-04 21:57:32",NULL
"715","Nikadalupotha","7",,"60580","80.1333","7.1167","2025-09-04 21:57:32","2025-09-04 21:57:32",NULL
"716","Nikahetikanda","7",,"11128","80.179551","7.099089","2025-09-04 21:57:32","2025-09-04 21:57:32",NULL
"717","Nittambuwa","7",,"11880","80.096178","7.144243","2025-09-04 21:57:32","2025-09-04 21:57:32",NULL
"718","Niwandama","7",,"11354","79.928331","7.078762","2025-09-04 21:57:32","2025-09-04 21:57:32",NULL
"719","Opatha","7",,"80142","79.921419","7.132037","2025-09-04 21:57:32","2025-09-04 21:57:32",NULL
"720","Pamunugama","7",,"11370","79.844569","7.094359","2025-09-04 21:57:32","2025-09-04 21:57:32",NULL
"721","Pamunuwatta","7",,"11214","80.139696","7.214678","2025-09-04 21:57:32","2025-09-04 21:57:32",NULL
"722","Panawala","7",,"70612","80.0333","6.9833","2025-09-04 21:57:32","2025-09-04 21:57:32",NULL
"723","Pasyala","7",,"11890","80.115911","7.172926","2025-09-04 21:57:32","2025-09-04 21:57:32",NULL
"725","Pepiliyawala","7",,"11741","80.128886","7.002342","2025-09-04 21:57:32","2025-09-04 21:57:32",NULL
"726","Pethiyagoda","7",,"11043","80.0167","7.1167","2025-09-04 21:57:32","2025-09-04 21:57:32",NULL
"727","Polpithimukulana","7",,"11324","79.8782","7.0444","2025-09-04 21:57:32","2025-09-04 21:57:32",NULL
"728","Puwakpitiya","7",,"10712","80.064451","7.040498","2025-09-04 21:57:32","2025-09-04 21:57:32",NULL
"729","Radawadunna","7",,"11892","80.141344","7.177279","2025-09-04 21:57:32","2025-09-04 21:57:32",NULL
"730","Radawana","7",,"11725","80.100915","7.029871","2025-09-04 21:57:32","2025-09-04 21:57:32",NULL
"731","Raddolugama","7",,"11400","79.898198","7.140656","2025-09-04 21:57:32","2025-09-04 21:57:32",NULL
"733","Ruggahawila","7",,"11142","80.1167","7.0667","2025-09-04 21:57:32","2025-09-04 21:57:32",NULL
"734","Seeduwa","7",,"11410","79.885024","7.132059","2025-09-04 21:57:32","2025-09-04 21:57:32",NULL
"735","Siyambalape","7",,"11607","79.986406","6.964545","2025-09-04 21:57:32","2025-09-04 21:57:32",NULL
"737","Thambagalla","7",,"60584","80.1333","7.1167","2025-09-04 21:57:32","2025-09-04 21:57:32",NULL
"738","Thimbirigaskatuwa","7",,"11532","79.9495","7.2669","2025-09-04 21:57:32","2025-09-04 21:57:32",NULL
"739","Tittapattara","7",,"10664","80.0889","6.9297","2025-09-04 21:57:32","2025-09-04 21:57:32",NULL
"740","Udathuthiripitiya","7",,"11054","80.0333","7.075","2025-09-04 21:57:32","2025-09-04 21:57:32",NULL
"741","Udugampola","7",,"11030","79.9833","7.1167","2025-09-04 21:57:32","2025-09-04 21:57:32",NULL
"742","Uggalboda","7",,"11034","79.948259","7.135549","2025-09-04 21:57:32","2025-09-04 21:57:32",NULL
"743","Urapola","7",,"11126","80.136935","7.104792","2025-09-04 21:57:32","2025-09-04 21:57:32",NULL
"744","Uswetakeiyawa","7",,"11328","79.860339","7.031046","2025-09-04 21:57:32","2025-09-04 21:57:32",NULL
"745","Veyangoda","7",,"11100","80.095842","7.156981","2025-09-04 21:57:32","2025-09-04 21:57:32",NULL
"746","Walgammulla","7",,"11146","80.116511","7.071902","2025-09-04 21:57:32","2025-09-04 21:57:32",NULL
"747","Walpita","7",,"11226","80.034704","7.258131","2025-09-04 21:57:32","2025-09-04 21:57:32",NULL
"748","Walpola (WP)","7",,"11012","79.9257","7.0418","2025-09-04 21:57:32","2025-09-04 21:57:32",NULL
"749","Wathurugama","7",,"11724","80.0701","7.0421","2025-09-04 21:57:32","2025-09-04 21:57:32",NULL
"750","Watinapaha","7",,"11104","79.9833","7.2","2025-09-04 21:57:32","2025-09-04 21:57:32",NULL
"752","Weboda","7",,"11858","79.9833","7.0167","2025-09-04 21:57:32","2025-09-04 21:57:32",NULL
"753","Wegowwa","7",,"11562","79.962063","7.178443","2025-09-04 21:57:32","2025-09-04 21:57:32",NULL
"754","Weweldeniya","7",,"11894","80.1446","7.1834","2025-09-04 21:57:32","2025-09-04 21:57:32",NULL
"755","Yakkala","7",,"11870","80.05","7.1167","2025-09-04 21:57:32","2025-09-04 21:57:32",NULL
"756","Yatiyana","7",,"11566","79.931858","7.184998","2025-09-04 21:57:32","2025-09-04 21:57:32",NULL
"757","Ambalantota","8",,"82100","81.025983","6.114494","2025-09-04 21:57:32","2025-09-04 21:57:32",NULL
"758","Angunakolapelessa","8",,"82220","80.899471","6.162261","2025-09-04 21:57:32","2025-09-04 21:57:32",NULL
"759","Angunakolawewa","8",,"91302","81.093226","6.389127","2025-09-04 21:57:32","2025-09-04 21:57:32",NULL
"760","Bandagiriya Colony","8",,"82005","81.1389","6.1833","2025-09-04 21:57:32","2025-09-04 21:57:32",NULL
"761","Barawakumbuka","8",,"82110","80.8167","6.1667","2025-09-04 21:57:32","2025-09-04 21:57:32",NULL
"762","Beliatta","8",,"82400","80.734343","6.048637","2025-09-04 21:57:32","2025-09-04 21:57:32",NULL
"763","Beragama","8",,"82102","81.0667","6.15","2025-09-04 21:57:32","2025-09-04 21:57:32",NULL
"764","Beralihela","8",,"82618","81.2944","6.2556","2025-09-04 21:57:32","2025-09-04 21:57:32",NULL
"765","Bundala","8",,"82002","81.250493","6.195164","2025-09-04 21:57:32","2025-09-04 21:57:32",NULL
"766","Ellagala","8",,"82619","81.359512","6.26867","2025-09-04 21:57:32","2025-09-04 21:57:32",NULL
"767","Gangulandeniya","8",,"82586","80.7167","6.2833","2025-09-04 21:57:32","2025-09-04 21:57:32",NULL
"768","Getamanna","8",,"82420","80.669146","6.036244","2025-09-04 21:57:32","2025-09-04 21:57:32",NULL
"769","Goda Koggalla","8",,"82401","80.75","6.0333","2025-09-04 21:57:32","2025-09-04 21:57:32",NULL
"770","Gonagamuwa Uduwila","8",,"82602","81.2917","6.25","2025-09-04 21:57:32","2025-09-04 21:57:32",NULL
"771","Gonnoruwa","8",,"82006","81.112465","6.230443","2025-09-04 21:57:32","2025-09-04 21:57:32",NULL
"772","Hakuruwela","8",,"82248","80.83047","6.146456","2025-09-04 21:57:32","2025-09-04 21:57:32",NULL
"774","Handugala","8",,"81326","80.62414","6.188877","2025-09-04 21:57:32","2025-09-04 21:57:32",NULL
"775","Hungama","8",,"82120","80.927144","6.108006","2025-09-04 21:57:32","2025-09-04 21:57:32",NULL
"776","Ihala Beligalla","8",,"82412","80.747311","6.092378","2025-09-04 21:57:32","2025-09-04 21:57:32",NULL
"777","Ittademaliya","8",,"82462","80.735179","6.167432","2025-09-04 21:57:32","2025-09-04 21:57:32",NULL
"778","Julampitiya","8",,"82252","80.7403","6.2261","2025-09-04 21:57:32","2025-09-04 21:57:32",NULL
"779","Kahandamodara","8",,"82126","80.902917","6.078654","2025-09-04 21:57:32","2025-09-04 21:57:32",NULL
"780","Kariyamaditta","8",,"82274","80.809448","6.257359","2025-09-04 21:57:32","2025-09-04 21:57:32",NULL
"781","Katuwana","8",,"82500","80.6972","6.2667","2025-09-04 21:57:32","2025-09-04 21:57:32",NULL
"782","Kawantissapura","8",,"82622","81.2524","6.2786","2025-09-04 21:57:32","2025-09-04 21:57:32",NULL
"783","Kirama","8",,"82550","80.6653","6.2117","2025-09-04 21:57:32","2025-09-04 21:57:32",NULL
"784","Kirinda","8",,"82614","81.290653","6.268985","2025-09-04 21:57:32","2025-09-04 21:57:32",NULL
"785","Lunama","8",,"82108","80.971511","6.098517","2025-09-04 21:57:32","2025-09-04 21:57:32",NULL
"786","Lunugamwehera","8",,"82634","81.15","6.3417","2025-09-04 21:57:32","2025-09-04 21:57:32",NULL
"787","Magama","8",,"82608","81.270354","6.280108","2025-09-04 21:57:32","2025-09-04 21:57:32",NULL
"788","Mahagalwewa","8",,"82016","81.1389","6.1833","2025-09-04 21:57:32","2025-09-04 21:57:32",NULL
"789","Mamadala","8",,"82109","80.96681","6.158126","2025-09-04 21:57:32","2025-09-04 21:57:32",NULL
"790","Medamulana","8",,"82254","80.770016","6.175878","2025-09-04 21:57:32","2025-09-04 21:57:32",NULL
"791","Middeniya","8",,"82270","80.7672","6.2494","2025-09-04 21:57:32","2025-09-04 21:57:32",NULL
"792","Migahajandur","8",,"82014","81.1389","6.1833","2025-09-04 21:57:32","2025-09-04 21:57:32",NULL
"793","Modarawana","8",,"82416","80.720781","6.117576","2025-09-04 21:57:32","2025-09-04 21:57:32",NULL
"794","Mulkirigala","8",,"82242","80.7397","6.12","2025-09-04 21:57:32","2025-09-04 21:57:32",NULL
"795","Nakulugamuwa","8",,"82300","80.9063","6.1842","2025-09-04 21:57:32","2025-09-04 21:57:32",NULL
"796","Netolpitiya","8",,"82135","80.850703","6.066848","2025-09-04 21:57:32","2025-09-04 21:57:32",NULL
"797","Nihiluwa","8",,"82414","80.696499","6.077147","2025-09-04 21:57:32","2025-09-04 21:57:32",NULL
"798","Padawkema","8",,"82636","81.1667","6.35","2025-09-04 21:57:32","2025-09-04 21:57:32",NULL
"799","Pahala Andarawewa","8",,"82008","81.1389","6.1833","2025-09-04 21:57:32","2025-09-04 21:57:32",NULL
"800","Rammalawarapitiya","8",,"82554","80.6653","6.2117","2025-09-04 21:57:32","2025-09-04 21:57:32",NULL
"801","Ranakeliya","8",,"82612","81.3","6.2167","2025-09-04 21:57:32","2025-09-04 21:57:32",NULL
"802","Ranmuduwewa","8",,"82018","81.1389","6.1833","2025-09-04 21:57:32","2025-09-04 21:57:32",NULL
"803","Ranna","8",,"82125","80.890168","6.103377","2025-09-04 21:57:32","2025-09-04 21:57:32",NULL
"804","Ratmalwala","8",,"82276","80.85","6.2667","2025-09-04 21:57:32","2025-09-04 21:57:32",NULL
"805","RU/Ridiyagama","8",,"82106","81.0042","6.1375","2025-09-04 21:57:32","2025-09-04 21:57:32",NULL
"806","Sooriyawewa Town","8",,"82010","81.1389","6.1833","2025-09-04 21:57:32","2025-09-04 21:57:32",NULL
"808","Tissamaharama","8",,"82600","81.328087","6.370333","2025-09-04 21:57:32","2025-09-04 21:57:32",NULL
"809","Uda Gomadiya","8",,"82504","80.6972","6.2667","2025-09-04 21:57:32","2025-09-04 21:57:32",NULL
"810","Udamattala","8",,"82638","81.1333","6.3333","2025-09-04 21:57:32","2025-09-04 21:57:32",NULL
"811","Uswewa","8",,"82278","80.862175","6.246247","2025-09-04 21:57:32","2025-09-04 21:57:32",NULL
"812","Vitharandeniya","8",,"82232","80.806","6.1824","2025-09-04 21:57:32","2025-09-04 21:57:32",NULL
"813","Walasmulla","8",,"82450","80.7","6.15","2025-09-04 21:57:32","2025-09-04 21:57:32",NULL
"814","Weeraketiya","8",,"82240","80.7865","6.135","2025-09-04 21:57:32","2025-09-04 21:57:32",NULL
"815","Weerawila","8",,"82632","81.15","6.3417","2025-09-04 21:57:32","2025-09-04 21:57:32",NULL
"816","Weerawila NewTown","8",,"82615","81.2944","6.2556","2025-09-04 21:57:32","2025-09-04 21:57:32",NULL
"817","Wekandawela","8",,"82246","80.7865","6.135","2025-09-04 21:57:32","2025-09-04 21:57:32",NULL
"818","Weligatta","8",,"82004","81.196032","6.205897","2025-09-04 21:57:32","2025-09-04 21:57:32",NULL
"819","Yatigala","8",,"82418","80.6833","6.1","2025-09-04 21:57:32","2025-09-04 21:57:32",NULL
"821","Agalawatta","10",,"12200","80.155785","6.541499","2025-09-04 21:57:32","2025-09-04 21:57:32",NULL
"822","Alubomulla","10",,"12524","79.965857","6.711977","2025-09-04 21:57:32","2025-09-04 21:57:32",NULL
"823","Anguruwatota","10",,"12320","80.0861","6.6383","2025-09-04 21:57:32","2025-09-04 21:57:32",NULL
"824","Atale","10",,"71363","80.2667","6.45","2025-09-04 21:57:32","2025-09-04 21:57:32",NULL
"825","Baduraliya","10",,"12230","80.232371","6.523102","2025-09-04 21:57:32","2025-09-04 21:57:32",NULL
"826","Bandaragama","10",,"12530","79.986087","6.710264","2025-09-04 21:57:32","2025-09-04 21:57:32",NULL
"827","Batugampola","10",,"10526","80.142775","6.769068","2025-09-04 21:57:32","2025-09-04 21:57:32",NULL
"828","Bellana","10",,"12224","80.183117","6.518936","2025-09-04 21:57:32","2025-09-04 21:57:32",NULL
"830","Bolossagama","10",,"12008","80.015288","6.62099","2025-09-04 21:57:32","2025-09-04 21:57:32",NULL
"831","Bombuwala","10",,"12024","80.0167","6.5833","2025-09-04 21:57:32","2025-09-04 21:57:32",NULL
"832","Boralugoda","10",,"12142","80.278799","6.438709","2025-09-04 21:57:32","2025-09-04 21:57:32",NULL
"833","Bulathsinhala","10",,"12300","80.164896","6.666199","2025-09-04 21:57:32","2025-09-04 21:57:32",NULL
"834","Danawala Thiniyawala","10",,"12148","80.2667","6.4333","2025-09-04 21:57:32","2025-09-04 21:57:32",NULL
"835","Delmella","10",,"12304","80.210488","6.67833","2025-09-04 21:57:32","2025-09-04 21:57:32",NULL
"836","Dharga Town","10",,"12090","80.0089","6.648","2025-09-04 21:57:32","2025-09-04 21:57:32",NULL
"837","Diwalakada","10",,"12308","80.146983","6.696767","2025-09-04 21:57:32","2025-09-04 21:57:32",NULL
"838","Dodangoda","10",,"12020","80.006847","6.555952","2025-09-04 21:57:32","2025-09-04 21:57:32",NULL
"839","Dombagoda","10",,"12416","80.053343","6.661797","2025-09-04 21:57:32","2025-09-04 21:57:32",NULL
"840","Ethkandura","10",,"80458","80.1807","6.4415","2025-09-04 21:57:32","2025-09-04 21:57:32",NULL
"841","Galpatha","10",,"12005","80.0015","6.5983","2025-09-04 21:57:32","2025-09-04 21:57:32",NULL
"842","Gamagoda","10",,"12016","80.005539","6.597103","2025-09-04 21:57:32","2025-09-04 21:57:32",NULL
"843","Gonagalpura","10",,"80502","80.0169","6.6307","2025-09-04 21:57:32","2025-09-04 21:57:32",NULL
"844","Gonapola Junction","10",,"12410","80.0333","6.6944","2025-09-04 21:57:32","2025-09-04 21:57:32",NULL
"845","Govinna","10",,"12310","80.116274","6.663337","2025-09-04 21:57:32","2025-09-04 21:57:32",NULL
"846","Gurulubadda","10",,"12236","80.2667","6.5333","2025-09-04 21:57:32","2025-09-04 21:57:32",NULL
"847","Halkandawila","10",,"12055","80.0167","6.5167","2025-09-04 21:57:32","2025-09-04 21:57:32",NULL
"848","Haltota","10",,"12538","80.02127","6.69554","2025-09-04 21:57:32","2025-09-04 21:57:32",NULL
"849","Halvitigala Colony","10",,"80146","80.2233","6.5791","2025-09-04 21:57:32","2025-09-04 21:57:32",NULL
"850","Halwala","10",,"12118","80.106562","6.416524","2025-09-04 21:57:32","2025-09-04 21:57:32",NULL
"851","Halwatura","10",,"12306","80.2","6.7","2025-09-04 21:57:32","2025-09-04 21:57:32",NULL
"852","Handapangoda","10",,"10524","80.140774","6.789746","2025-09-04 21:57:32","2025-09-04 21:57:32",NULL
"853","Hedigalla Colony","10",,"12234","80.2667","6.5333","2025-09-04 21:57:32","2025-09-04 21:57:32",NULL
"854","Henegama","10",,"11715","80.0333","6.7167","2025-09-04 21:57:32","2025-09-04 21:57:32",NULL
"855","Hettimulla","10",,"71210","79.992643","6.461362","2025-09-04 21:57:32","2025-09-04 21:57:32",NULL
"857","Ittapana","10",,"12116","80.079501","6.42254","2025-09-04 21:57:32","2025-09-04 21:57:32",NULL
"858","Kahawala","10",,"10508","80.1","6.7833","2025-09-04 21:57:32","2025-09-04 21:57:32",NULL
"859","Kalawila Kiranthidiya","10",,"12078","80.0004","6.4619","2025-09-04 21:57:32","2025-09-04 21:57:32",NULL
"861","Kananwila","10",,"12418","80.05","6.7667","2025-09-04 21:57:32","2025-09-04 21:57:32",NULL
"862","Kandanagama","10",,"12428","80.0778","6.7667","2025-09-04 21:57:32","2025-09-04 21:57:32",NULL
"863","Kelinkanda","10",,"12218","80.29322","6.587128","2025-09-04 21:57:32","2025-09-04 21:57:32",NULL
"864","Kitulgoda","10",,"12222","80.1833","6.5167","2025-09-04 21:57:32","2025-09-04 21:57:32",NULL
"865","Koholana","10",,"12007","79.989353","6.618149","2025-09-04 21:57:32","2025-09-04 21:57:32",NULL
"866","Kuda Uduwa","10",,"12426","80.078499","6.747871","2025-09-04 21:57:32","2025-09-04 21:57:32",NULL
"867","Labbala","10",,"60162","80","6.4833","2025-09-04 21:57:32","2025-09-04 21:57:32",NULL
"868","lhalahewessa","10",,"80432","80.1807","6.4415","2025-09-04 21:57:32","2025-09-04 21:57:32",NULL
"869","lnduruwa","10",,"80510","80.0257","6.4681","2025-09-04 21:57:32","2025-09-04 21:57:32",NULL
"870","lngiriya","10",,"12440","80.0604","6.7296","2025-09-04 21:57:32","2025-09-04 21:57:32",NULL
"871","Maggona","10",,"12060","79.977597","6.503158","2025-09-04 21:57:32","2025-09-04 21:57:32",NULL
"872","Mahagama","10",,"12210","80.154204","6.620177","2025-09-04 21:57:32","2025-09-04 21:57:32",NULL
"873","Mahakalupahana","10",,"12126","80.1417","6.3917","2025-09-04 21:57:32","2025-09-04 21:57:32",NULL
"874","Maharangalla","10",,"71211","80","6.4667","2025-09-04 21:57:32","2025-09-04 21:57:32",NULL
"875","Malgalla Talangalla","10",,"80144","80.2233","6.5791","2025-09-04 21:57:32","2025-09-04 21:57:32",NULL
"876","Matugama","10",,"12100","80.1144","6.5222","2025-09-04 21:57:32","2025-09-04 21:57:32",NULL
"877","Meegahatenna","10",,"12130","80.285","6.3637","2025-09-04 21:57:32","2025-09-04 21:57:32",NULL
"878","Meegama","10",,"12094","80.0089","6.648","2025-09-04 21:57:32","2025-09-04 21:57:32",NULL
"879","Meegoda","10",,"10504","80.0829","6.8053","2025-09-04 21:57:32","2025-09-04 21:57:32",NULL
"880","Millaniya","10",,"12412","80.017227","6.686206","2025-09-04 21:57:32","2025-09-04 21:57:32",NULL
"881","Millewa","10",,"12422","80.0667","6.7833","2025-09-04 21:57:32","2025-09-04 21:57:32",NULL
"882","Miwanapalana","10",,"12424","80.1","6.75","2025-09-04 21:57:32","2025-09-04 21:57:32",NULL
"883","Molkawa","10",,"12216","80.238612","6.607725","2025-09-04 21:57:32","2025-09-04 21:57:32",NULL
"884","Morapitiya","10",,"12232","80.263667","6.527127","2025-09-04 21:57:32","2025-09-04 21:57:32",NULL
"885","Morontuduwa","10",,"12564","79.9667","6.65","2025-09-04 21:57:32","2025-09-04 21:57:32",NULL
"886","Nawattuduwa","10",,"12106","80.0937","6.5019","2025-09-04 21:57:32","2025-09-04 21:57:32",NULL
"887","Neboda","10",,"12030","80.0842","6.5906","2025-09-04 21:57:32","2025-09-04 21:57:32",NULL
"888","Padagoda","10",,"12074","80.009049","6.456979","2025-09-04 21:57:32","2025-09-04 21:57:32",NULL
"889","Pahalahewessa","10",,"12144","80.2667","6.4333","2025-09-04 21:57:32","2025-09-04 21:57:32",NULL
"890","Paiyagala","10",,"12050","80.0167","6.5167","2025-09-04 21:57:32","2025-09-04 21:57:32",NULL
"892","Pannala","10",,"60160","80","6.4833","2025-09-04 21:57:32","2025-09-04 21:57:32",NULL
"893","Paragastota","10",,"12414","80","6.6667","2025-09-04 21:57:32","2025-09-04 21:57:32",NULL
"894","Paragoda","10",,"12302","80.24112","6.627108","2025-09-04 21:57:32","2025-09-04 21:57:32",NULL
"895","Paraigama","10",,"12122","80.1167","6.4167","2025-09-04 21:57:32","2025-09-04 21:57:32",NULL
"896","Pelanda","10",,"12214","80.2333","6.6056","2025-09-04 21:57:32","2025-09-04 21:57:32",NULL
"898","Pimbura","10",,"70472","80.161311","6.570997","2025-09-04 21:57:32","2025-09-04 21:57:32",NULL
"899","Pitagaldeniya","10",,"71360","80.2667","6.45","2025-09-04 21:57:32","2025-09-04 21:57:32",NULL
"900","Pokunuwita","10",,"12404","80.0333","6.7333","2025-09-04 21:57:32","2025-09-04 21:57:32",NULL
"901","Poruwedanda","10",,"12432","80.1167","6.7333","2025-09-04 21:57:32","2025-09-04 21:57:32",NULL
"902","Ratmale","10",,"81030","80.2","6.45","2025-09-04 21:57:32","2025-09-04 21:57:32",NULL
"903","Remunagoda","10",,"12009","80.031349","6.594994","2025-09-04 21:57:32","2025-09-04 21:57:32",NULL
"904","Talgaswela","10",,"80470","80.1807","6.4415","2025-09-04 21:57:32","2025-09-04 21:57:32",NULL
"905","Tebuwana","10",,"12025","80.0611","6.5944","2025-09-04 21:57:32","2025-09-04 21:57:32",NULL
"906","Uduwara","10",,"12322","80.0667","6.6167","2025-09-04 21:57:32","2025-09-04 21:57:32",NULL
"907","Utumgama","10",,"12127","80.1417","6.3917","2025-09-04 21:57:32","2025-09-04 21:57:32",NULL
"908","Veyangalla","10",,"12204","80.1583","6.5422","2025-09-04 21:57:32","2025-09-04 21:57:32",NULL
"909","Wadduwa","10",,"12560","79.924051","6.667121","2025-09-04 21:57:32","2025-09-04 21:57:32",NULL
"910","Walagedara","10",,"12112","80.071449","6.437775","2025-09-04 21:57:32","2025-09-04 21:57:32",NULL
"911","Walallawita","10",,"12134","80.2","6.3667","2025-09-04 21:57:32","2025-09-04 21:57:32",NULL
"912","Waskaduwa","10",,"12580","79.9442","6.6317","2025-09-04 21:57:32","2025-09-04 21:57:32",NULL
"913","Welipenna","10",,"12108","80.101763","6.466448","2025-09-04 21:57:32","2025-09-04 21:57:32",NULL
"914","Weliveriya","10",,"11710","80.0333","6.7167","2025-09-04 21:57:32","2025-09-04 21:57:32",NULL
"915","Welmilla Junction","10",,"12534","80.01","6.7072","2025-09-04 21:57:32","2025-09-04 21:57:32",NULL
"916","Weragala","10",,"71622","80.004097","6.527062","2025-09-04 21:57:32","2025-09-04 21:57:32",NULL
"917","Yagirala","10",,"12124","80.161812","6.378714","2025-09-04 21:57:32","2025-09-04 21:57:32",NULL
"918","Yatadolawatta","10",,"12104","80.064428","6.52309","2025-09-04 21:57:32","2025-09-04 21:57:32",NULL
"919","Yatawara Junction","10",,"12006","80.0015","6.5983","2025-09-04 21:57:32","2025-09-04 21:57:32",NULL
"920","Aludeniya","11",,"20062","80.46648","7.370491","2025-09-04 21:57:32","2025-09-04 21:57:32",NULL
"921","Ambagahapelessa","11",,"20986","81.00264","7.243803","2025-09-04 21:57:32","2025-09-04 21:57:32",NULL
"922","Ambagamuwa Udabulathgama","11",,"20678","80.5","7.0333","2025-09-04 21:57:32","2025-09-04 21:57:32",NULL
"923","Ambatenna","11",,"20136","80.6192","7.3472","2025-09-04 21:57:32","2025-09-04 21:57:32",NULL
"924","Ampitiya","11",,"20160","80.65","7.2667","2025-09-04 21:57:32","2025-09-04 21:57:32",NULL
"925","Ankumbura","11",,"20150","80.568704","7.434149","2025-09-04 21:57:32","2025-09-04 21:57:32",NULL
"926","Atabage","11",,"20574","80.6","7.1333","2025-09-04 21:57:32","2025-09-04 21:57:32",NULL
"927","Balana","11",,"20308","80.485503","7.269032","2025-09-04 21:57:32","2025-09-04 21:57:32",NULL
"928","Bambaragahaela","11",,"20644","80.5023","7.0523","2025-09-04 21:57:32","2025-09-04 21:57:32",NULL
"929","Batagolladeniya","11",,"20154","80.576688","7.41596","2025-09-04 21:57:32","2025-09-04 21:57:32",NULL
"930","Batugoda","11",,"20132","80.59604","7.366275","2025-09-04 21:57:32","2025-09-04 21:57:32",NULL
"931","Batumulla","11",,"20966","80.978905","7.256086","2025-09-04 21:57:32","2025-09-04 21:57:32",NULL
"932","Bawlana","11",,"20218","80.718828","7.211388","2025-09-04 21:57:32","2025-09-04 21:57:32",NULL
"933","Bopana","11",,"20932","80.9","7.3","2025-09-04 21:57:32","2025-09-04 21:57:32",NULL
"934","Danture","11",,"20465","80.5333","7.2833","2025-09-04 21:57:32","2025-09-04 21:57:32",NULL
"935","Dedunupitiya","11",,"20068","80.4333","7.3333","2025-09-04 21:57:32","2025-09-04 21:57:32",NULL
"936","Dekinda","11",,"20658","80.509932","7.014688","2025-09-04 21:57:32","2025-09-04 21:57:32",NULL
"937","Deltota","11",,"20430","80.6667","7.2","2025-09-04 21:57:32","2025-09-04 21:57:32",NULL
"938","Divulankadawala","11",,"51428","80.55","7.175","2025-09-04 21:57:32","2025-09-04 21:57:32",NULL
"939","Dolapihilla","11",,"20126","80.584659","7.393576","2025-09-04 21:57:32","2025-09-04 21:57:32",NULL
"940","Dolosbage","11",,"20510","80.4731","7.0806","2025-09-04 21:57:32","2025-09-04 21:57:32",NULL
"941","Dunuwila","11",,"20824","80.6333","7.3833","2025-09-04 21:57:32","2025-09-04 21:57:32",NULL
"942","Etulgama","11",,"20202","80.65","7.2333","2025-09-04 21:57:32","2025-09-04 21:57:32",NULL
"943","Galaboda","11",,"20664","80.5319","6.9875","2025-09-04 21:57:32","2025-09-04 21:57:32",NULL
"944","Galagedara","11",,"20100","80.520308","7.369716","2025-09-04 21:57:32","2025-09-04 21:57:32",NULL
"945","Galaha","11",,"20420","80.668659","7.195764","2025-09-04 21:57:32","2025-09-04 21:57:32",NULL
"946","Galhinna","11",,"20152","80.560015","7.418361","2025-09-04 21:57:32","2025-09-04 21:57:32",NULL
"948","Gelioya","11",,"20620","80.6017","7.2136","2025-09-04 21:57:32","2025-09-04 21:57:32",NULL
"949","Godamunna","11",,"20214","80.697447","7.227313","2025-09-04 21:57:32","2025-09-04 21:57:32",NULL
"950","Gomagoda","11",,"20184","80.7333","7.3167","2025-09-04 21:57:32","2025-09-04 21:57:32",NULL
"951","Gonagantenna","11",,"20712","80.7118","7.1517","2025-09-04 21:57:32","2025-09-04 21:57:32",NULL
"952","Gonawalapatana","11",,"20656","80.5262","7.0358","2025-09-04 21:57:32","2025-09-04 21:57:32",NULL
"953","Gunnepana","11",,"20270","80.6537","7.2696","2025-09-04 21:57:32","2025-09-04 21:57:32",NULL
"954","Gurudeniya","11",,"20189","80.702921","7.265953","2025-09-04 21:57:32","2025-09-04 21:57:32",NULL
"955","Hakmana","11",,"81300","80.82402","7.334701","2025-09-04 21:57:32","2025-09-04 21:57:32",NULL
"956","Handaganawa","11",,"20984","80.989485","7.277451","2025-09-04 21:57:32","2025-09-04 21:57:32",NULL
"957","Handawalapitiya","11",,"20438","80.6667","7.2","2025-09-04 21:57:32","2025-09-04 21:57:32",NULL
"958","Handessa","11",,"20480","80.580831","7.230048","2025-09-04 21:57:32","2025-09-04 21:57:32",NULL
"959","Hanguranketha","11",,"20710","80.7118","7.1517","2025-09-04 21:57:32","2025-09-04 21:57:32",NULL
"960","Harangalagama","11",,"20669","80.5493","7.0271","2025-09-04 21:57:32","2025-09-04 21:57:32",NULL
"961","Hataraliyadda","11",,"20060","80.4667","7.3333","2025-09-04 21:57:32","2025-09-04 21:57:32",NULL
"962","Hindagala","11",,"20414","80.600815","7.231512","2025-09-04 21:57:32","2025-09-04 21:57:32",NULL
"963","Hondiyadeniya","11",,"20524","80.5766","7.1364","2025-09-04 21:57:32","2025-09-04 21:57:32",NULL
"964","Hunnasgiriya","11",,"20948","80.849834","7.298756","2025-09-04 21:57:32","2025-09-04 21:57:32",NULL
"965","Inguruwatta","11",,"60064","80.599767","7.175038","2025-09-04 21:57:32","2025-09-04 21:57:32",NULL
"966","Jambugahapitiya","11",,"20822","80.6333","7.3833","2025-09-04 21:57:32","2025-09-04 21:57:32",NULL
"968","Kahataliyadda","11",,"20924","80.8213","7.376","2025-09-04 21:57:32","2025-09-04 21:57:32",NULL
"969","Kalugala","11",,"20926","80.883008","7.390136","2025-09-04 21:57:32","2025-09-04 21:57:32",NULL
"971","Kapuliyadde","11",,"20206","80.6808","7.2401","2025-09-04 21:57:32","2025-09-04 21:57:32",NULL
"972","Katugastota","11",,"20800","80.6211","7.3161","2025-09-04 21:57:32","2025-09-04 21:57:32",NULL
"973","Katukitula","11",,"20588","80.6339","7.1089","2025-09-04 21:57:32","2025-09-04 21:57:32",NULL
"974","Kelanigama","11",,"20688","80.5182","7.0049","2025-09-04 21:57:32","2025-09-04 21:57:32",NULL
"975","Kengalla","11",,"20186","80.711767","7.296461","2025-09-04 21:57:32","2025-09-04 21:57:32",NULL
"976","Ketaboola","11",,"20660","80.5493","7.0271","2025-09-04 21:57:32","2025-09-04 21:57:32",NULL
"977","Ketakumbura","11",,"20306","80.571678","7.210532","2025-09-04 21:57:32","2025-09-04 21:57:32",NULL
"978","Kobonila","11",,"20928","80.8213","7.376","2025-09-04 21:57:32","2025-09-04 21:57:32",NULL
"979","Kolabissa","11",,"20212","80.7167","7.225","2025-09-04 21:57:32","2025-09-04 21:57:32",NULL
"980","Kolongoda","11",,"20971","80.8375","7.3552","2025-09-04 21:57:32","2025-09-04 21:57:32",NULL
"981","Kulugammana","11",,"20048","80.590268","7.315193","2025-09-04 21:57:32","2025-09-04 21:57:32",NULL
"982","Kumbukkandura","11",,"20902","80.7686","7.2969","2025-09-04 21:57:32","2025-09-04 21:57:32",NULL
"983","Kumburegama","11",,"20086","80.551316","7.357279","2025-09-04 21:57:32","2025-09-04 21:57:32",NULL
"984","Kundasale","11",,"20168","80.6833","7.2667","2025-09-04 21:57:32","2025-09-04 21:57:32",NULL
"985","Leemagahakotuwa","11",,"20482","80.5833","7.2333","2025-09-04 21:57:32","2025-09-04 21:57:32",NULL
"986","lhala Kobbekaduwa","11",,"20042","80.5833","7.3167","2025-09-04 21:57:32","2025-09-04 21:57:32",NULL
"987","Lunugama","11",,"11062","80.578244","7.198402","2025-09-04 21:57:32","2025-09-04 21:57:32",NULL
"988","Lunuketiya Maditta","11",,"20172","80.716","7.3292","2025-09-04 21:57:32","2025-09-04 21:57:32",NULL
"989","Madawala Bazaar","11",,"20260","80.6537","7.2696","2025-09-04 21:57:32","2025-09-04 21:57:32",NULL
"990","Madawalalanda","11",,"32016","80.4982","7.3792","2025-09-04 21:57:32","2025-09-04 21:57:32",NULL
"991","Madugalla","11",,"20938","80.882139","7.265802","2025-09-04 21:57:32","2025-09-04 21:57:32",NULL
"992","Madulkele","11",,"20840","80.728874","7.400281","2025-09-04 21:57:32","2025-09-04 21:57:32",NULL
"993","Mahadoraliyadda","11",,"20945","80.85","7.3","2025-09-04 21:57:32","2025-09-04 21:57:32",NULL
"994","Mahamedagama","11",,"20216","80.7167","7.225","2025-09-04 21:57:32","2025-09-04 21:57:32",NULL
"995","Mahanagapura","11",,"32018","80.4982","7.3792","2025-09-04 21:57:32","2025-09-04 21:57:32",NULL
"996","Mailapitiya","11",,"20702","80.7118","7.1517","2025-09-04 21:57:32","2025-09-04 21:57:32",NULL
"997","Makkanigama","11",,"20828","80.6333","7.3833","2025-09-04 21:57:32","2025-09-04 21:57:32",NULL
"998","Makuldeniya","11",,"20921","80.777466","7.341706","2025-09-04 21:57:32","2025-09-04 21:57:32",NULL
"999","Mangalagama","11",,"32069","80.563656","7.285856","2025-09-04 21:57:32","2025-09-04 21:57:32",NULL
"1000","Mapakanda","11",,"20662","80.531101","7.007889","2025-09-04 21:57:32","2025-09-04 21:57:32",NULL
"1001","Marassana","11",,"20210","80.732336","7.221663","2025-09-04 21:57:32","2025-09-04 21:57:32",NULL
"1002","Marymount Colony","11",,"20714","80.7118","7.1517","2025-09-04 21:57:32","2025-09-04 21:57:32",NULL
"1003","Mawatura","11",,"20564","80.5667","7.1","2025-09-04 21:57:32","2025-09-04 21:57:32",NULL
"1004","Medamahanuwara","11",,"20940","80.85","7.3","2025-09-04 21:57:32","2025-09-04 21:57:32",NULL
"1005","Medawala Harispattuwa","11",,"20120","80.6833","7.3417","2025-09-04 21:57:32","2025-09-04 21:57:32",NULL
"1006","Meetalawa","11",,"20512","80.4699","7.0986","2025-09-04 21:57:32","2025-09-04 21:57:32",NULL
"1007","Megoda Kalugamuwa","11",,"20409","80.6028","7.2631","2025-09-04 21:57:32","2025-09-04 21:57:32",NULL
"1008","Menikdiwela","11",,"20470","80.501662","7.288455","2025-09-04 21:57:32","2025-09-04 21:57:32",NULL
"1009","Menikhinna","11",,"20170","80.7","7.3167","2025-09-04 21:57:32","2025-09-04 21:57:32",NULL
"1010","Mimure","11",,"20923","80.8333","7.4333","2025-09-04 21:57:32","2025-09-04 21:57:32",NULL
"1011","Minigamuwa","11",,"20109","80.5167","7.3333","2025-09-04 21:57:32","2025-09-04 21:57:32",NULL
"1012","Minipe","11",,"20983","80.990971","7.223556","2025-09-04 21:57:32","2025-09-04 21:57:32",NULL
"1013","Moragahapallama","11",,"32012","80.4982","7.3792","2025-09-04 21:57:32","2025-09-04 21:57:32",NULL
"1014","Murutalawa","11",,"20232","80.5667","7.3","2025-09-04 21:57:32","2025-09-04 21:57:32",NULL
"1015","Muruthagahamulla","11",,"20526","80.5766","7.1364","2025-09-04 21:57:32","2025-09-04 21:57:32",NULL
"1016","Nanuoya","11",,"22150","80.6387","7.1171","2025-09-04 21:57:32","2025-09-04 21:57:32",NULL
"1017","Naranpanawa","11",,"20176","80.729831","7.339733","2025-09-04 21:57:32","2025-09-04 21:57:32",NULL
"1018","Narawelpita","11",,"81302","80.8","7.3167","2025-09-04 21:57:32","2025-09-04 21:57:32",NULL
"1019","Nawalapitiya","11",,"20650","80.530631","7.05048","2025-09-04 21:57:32","2025-09-04 21:57:32",NULL
"1020","Nawathispane","11",,"20670","80.5","7.0333","2025-09-04 21:57:32","2025-09-04 21:57:32",NULL
"1021","Nillambe","11",,"20418","80.6333","7.15","2025-09-04 21:57:32","2025-09-04 21:57:32",NULL
"1022","Nugaliyadda","11",,"20204","80.7","7.2333","2025-09-04 21:57:32","2025-09-04 21:57:32",NULL
"1023","Ovilikanda","11",,"21020","80.5667","7.45","2025-09-04 21:57:32","2025-09-04 21:57:32",NULL
"1024","Pallekotuwa","11",,"20084","80.5667","7.3333","2025-09-04 21:57:32","2025-09-04 21:57:32",NULL
"1025","Panwilatenna","11",,"20544","80.6314","7.1556","2025-09-04 21:57:32","2025-09-04 21:57:32",NULL
"1026","Paradeka","11",,"20578","80.618959","7.12293","2025-09-04 21:57:32","2025-09-04 21:57:32",NULL
"1027","Pasbage","11",,"20654","80.5262","7.0358","2025-09-04 21:57:32","2025-09-04 21:57:32",NULL
"1028","Pattitalawa","11",,"20511","80.4667","7.1167","2025-09-04 21:57:32","2025-09-04 21:57:32",NULL
"1029","Peradeniya","11",,"20400","80.6028","7.2631","2025-09-04 21:57:32","2025-09-04 21:57:32",NULL
"1030","Pilimatalawa","11",,"20450","80.5333","7.2333","2025-09-04 21:57:32","2025-09-04 21:57:32",NULL
"1031","Poholiyadda","11",,"20106","80.520186","7.343274","2025-09-04 21:57:32","2025-09-04 21:57:32",NULL
"1032","Pubbiliya","11",,"21502","80.481336","7.385927","2025-09-04 21:57:32","2025-09-04 21:57:32",NULL
"1033","Pupuressa","11",,"20546","80.677455","7.115632","2025-09-04 21:57:32","2025-09-04 21:57:32",NULL
"1034","Pussellawa","11",,"20580","80.644101","7.112565","2025-09-04 21:57:32","2025-09-04 21:57:32",NULL
"1035","Putuhapuwa","11",,"20906","80.759353","7.334198","2025-09-04 21:57:32","2025-09-04 21:57:32",NULL
"1036","Rajawella","11",,"20180","80.748217","7.280519","2025-09-04 21:57:32","2025-09-04 21:57:32",NULL
"1037","Rambukpitiya","11",,"20676","80.5","7.0333","2025-09-04 21:57:32","2025-09-04 21:57:32",NULL
"1038","Rambukwella","11",,"20128","80.777664","7.294759","2025-09-04 21:57:32","2025-09-04 21:57:32",NULL
"1039","Rangala","11",,"20922","80.795047","7.344486","2025-09-04 21:57:32","2025-09-04 21:57:32",NULL
"1040","Rantembe","11",,"20990","80.8375","7.3552","2025-09-04 21:57:32","2025-09-04 21:57:32",NULL
"1041","Sangarajapura","11",,"20044","80.5833","7.3167","2025-09-04 21:57:32","2025-09-04 21:57:32",NULL
"1042","Senarathwela","11",,"20904","80.761602","7.280125","2025-09-04 21:57:32","2025-09-04 21:57:32",NULL
"1043","Talatuoya","11",,"20200","80.6925","7.2536","2025-09-04 21:57:32","2025-09-04 21:57:32",NULL
"1044","Teldeniya","11",,"20900","80.7686","7.2969","2025-09-04 21:57:32","2025-09-04 21:57:32",NULL
"1045","Tennekumbura","11",,"20166","80.6667","7.2833","2025-09-04 21:57:32","2025-09-04 21:57:32",NULL
"1046","Uda Peradeniya","11",,"20404","80.614072","7.249001","2025-09-04 21:57:32","2025-09-04 21:57:32",NULL
"1047","Udahentenna","11",,"20506","80.5189","7.0889","2025-09-04 21:57:32","2025-09-04 21:57:32",NULL
"1048","Udatalawinna","11",,"20802","80.6211","7.3161","2025-09-04 21:57:32","2025-09-04 21:57:32",NULL
"1049","Udispattuwa","11",,"20916","80.8375","7.3552","2025-09-04 21:57:32","2025-09-04 21:57:32",NULL
"1050","Ududumbara","11",,"20950","80.8375","7.3552","2025-09-04 21:57:32","2025-09-04 21:57:32",NULL
"1051","Uduwahinna","11",,"20934","80.8917","7.2833","2025-09-04 21:57:32","2025-09-04 21:57:32",NULL
"1052","Uduwela","11",,"20164","80.6667","7.2722","2025-09-04 21:57:32","2025-09-04 21:57:32",NULL
"1053","Ulapane","11",,"20562","80.552445","7.114072","2025-09-04 21:57:32","2025-09-04 21:57:32",NULL
"1054","Unuwinna","11",,"20708","80.7118","7.1517","2025-09-04 21:57:32","2025-09-04 21:57:32",NULL
"1055","Velamboda","11",,"20640","80.5023","7.0523","2025-09-04 21:57:32","2025-09-04 21:57:32",NULL
"1056","Watagoda","11",,"22110","80.588304","7.39731","2025-09-04 21:57:32","2025-09-04 21:57:32",NULL
"1057","Watagoda Harispattuwa","11",,"20134","80.6012","7.3569","2025-09-04 21:57:32","2025-09-04 21:57:32",NULL
"1058","Wattappola","11",,"20454","80.543661","7.234802","2025-09-04 21:57:32","2025-09-04 21:57:32",NULL
"1059","Weligampola","11",,"20666","80.5493","7.0271","2025-09-04 21:57:32","2025-09-04 21:57:32",NULL
"1060","Wendaruwa","11",,"20914","80.8375","7.3552","2025-09-04 21:57:32","2025-09-04 21:57:32",NULL
"1061","Weragantota","11",,"20982","80.9833","7.3167","2025-09-04 21:57:32","2025-09-04 21:57:32",NULL
"1062","Werapitya","11",,"20908","80.7686","7.2969","2025-09-04 21:57:32","2025-09-04 21:57:32",NULL
"1063","Werellagama","11",,"20080","80.5833","7.3167","2025-09-04 21:57:32","2025-09-04 21:57:32",NULL
"1064","Wettawa","11",,"20108","80.5221","7.3508","2025-09-04 21:57:32","2025-09-04 21:57:32",NULL
"1065","Yahalatenna","11",,"20234","80.5667","7.3","2025-09-04 21:57:32","2025-09-04 21:57:32",NULL
"1066","Yatihalagala","11",,"20034","80.6","7.3","2025-09-04 21:57:32","2025-09-04 21:57:32",NULL
"1067","Alawala","12",,"11122","80.282779","7.197379","2025-09-04 21:57:32","2025-09-04 21:57:32",NULL
"1068","Alawatura","12",,"71204","80.3333","7.1333","2025-09-04 21:57:32","2025-09-04 21:57:32",NULL
"1069","Alawwa","12",,"60280","80.2536","7.2875","2025-09-04 21:57:32","2025-09-04 21:57:32",NULL
"1070","Algama","12",,"71607","80.162939","7.158338","2025-09-04 21:57:32","2025-09-04 21:57:32",NULL
"1071","Alutnuwara","12",,"71508","80.4667","7.2333","2025-09-04 21:57:32","2025-09-04 21:57:32",NULL
"1072","Ambalakanda","12",,"71546","80.446804","7.134049","2025-09-04 21:57:32","2025-09-04 21:57:32",NULL
"1073","Ambulugala","12",,"71503","80.409623","7.239127","2025-09-04 21:57:32","2025-09-04 21:57:32",NULL
"1074","Amitirigala","12",,"71320","80.1839","7.0306","2025-09-04 21:57:32","2025-09-04 21:57:32",NULL
"1075","Ampagala","12",,"71232","80.289037","7.080239","2025-09-04 21:57:32","2025-09-04 21:57:32",NULL
"1076","Anhandiya","12",,"60074","80.2667","7.2667","2025-09-04 21:57:32","2025-09-04 21:57:32",NULL
"1077","Anhettigama","12",,"71403","80.371876","6.922121","2025-09-04 21:57:32","2025-09-04 21:57:32",NULL
"1078","Aranayaka","12",,"71540","80.461358","7.144705","2025-09-04 21:57:32","2025-09-04 21:57:32",NULL
